시설명,업종명,소재지도로명주소,소재지지번주소,위도,경도,영업상태명,운반용차량보유여부,저장시설보유여부,전화번호,관리기관명,데이터기준일자,제공기관코드,제공기관명
대형약품,일반종합도매,경상남도 창원시 의창구 남산로1번길 8 (팔용동),경상남도 창원시 팔용동 179-1 동양빌딩2층,35.26052405,128.611357,영업,Y,Y,,창원보건소,2023-07-11,5670000,경상남도 창원시
주식회사하임약품,일반종합도매,"인천광역시 남동구 논고개로123번길 45, 8층 803호일부호 (논현동)",,37.40152834,126.7213016,영업,N,N,032-463-9399,인천광역시 남동구청,2024-06-21,3530000,인천광역시 남동구
메디트론,일반종합도매,"인천광역시 남동구 하촌로 32, 원창빌딩 3층 302호 (만수동)",,37.45079297,126.732294,영업,N,N,032-466-3777,인천광역시 남동구청,2024-06-21,3530000,인천광역시 남동구
강일약품(주),일반종합도매,강원특별자치도 강릉시 신석길 4 (유산동),,37.740069,128.9208257,영업,Y,Y,,강원특별자치도 강릉시보건소,2024-08-05,4201000,강원특별자치도 강릉시
순천당약업(주),일반종합도매,강원특별자치도 강릉시 남구길5번길 13 (포남동),,37.7628323,128.9058177,영업,Y,Y,,강원특별자치도 강릉시보건소,2024-08-05,4201000,강원특별자치도 강릉시
(주)파마리서치,일반종합도매,"강원특별자치도 강릉시 과학단지로 77-19, 1층 (대전동)",,37.80020138,128.8524453,영업,Y,N,,강원특별자치도 강릉시보건소,2024-08-05,4201000,강원특별자치도 강릉시
세운약품,일반종합도매,"부산광역시 영도구 태종로 86, 2층 202호 (대교동2가, 로얄팰리스)",부산광역시 영도구 대교동2가 135-7,35.09177921,129.040245,영업,N,N,051-415-1007,부산광역시 영도구보건소,2024-07-29,3280000,부산광역시 영도구
고려종합가스상사,의료용고압가스,부산광역시 영도구 태종로83번길 43 (봉래동1가),부산광역시 영도구 봉래동1가 120-2,35.09386413,129.0410978,영업,Y,Y,051-414-8949,부산광역시 영도구보건소,2024-07-29,3280000,부산광역시 영도구
영진종합가스,의료용고압가스,부산광역시 영도구 태종로 53-2 (대교동1가),부산광역시 영도구 대교동1가 36-5,35.09326142,129.0374773,영업,Y,Y,051-417-0376,부산광역시 영도구보건소,2024-07-29,3280000,부산광역시 영도구
(주)피에스지(PSG)해동충전소,의료용고압가스,부산광역시 영도구 해양로135번길 11 (청학동),부산광역시 영도구 청학동 1-124,35.09377178,129.0691053,영업,Y,Y,051-417-8858,부산광역시 영도구보건소,2024-07-29,3280000,부산광역시 영도구
(주)한의유통,한약도매,"충청북도 증평군 도안면 인삼로 741-3, (주)청솔생약",충청북도 증평군 도안면 송정리 134-5,36.83208634,127.6120647,영업,N,N,1544-5175,증평군보건소,2024-07-30,5570000,충청북도 증평군
증평제일삼화가스,기타,충청북도 증평군 증평읍 보건복지로 39,충청북도 증평군 증평읍 내성리 85,36.7772933,127.5859379,영업,N,N,043-836-1212,증평군보건소,2024-07-30,5570000,충청북도 증평군
삼정에너지(주),기타,경기도 파주시 탄현면 축현산단로 28,경기도 파주시 탄현면 축현리 14,37.8055083207,126.7402109753,영업,Y,Y,031-945-0261,경기도 파주시청,2024-07-30,4060000,경기도 파주시
동일산업가스,의료용고압가스,경기도 파주시 월롱산로 46-1,경기도 파주시 야동동 237-11,37.7805982114,126.7657658383,영업,Y,Y,031-941-5020,경기도 파주시청,2024-07-30,4060000,경기도 파주시
성창종합가스,의료용고압가스,경기도 파주시 파주읍 봉서산로 157,경기도 파주시 파주읍 봉서리 59-8,37.836043293,126.7968719981,영업,Y,Y,031-954-4884,경기도 파주시청,2024-07-30,4060000,경기도 파주시
금오가스 (주),의료용고압가스,경기도 파주시 조리읍 명봉산로 155,경기도 파주시 조리읍 장곡리 598-36,37.7409869407,126.8457442543,영업,Y,Y,,경기도 파주시청,2024-07-30,4060000,경기도 파주시
그린가스 주식회사,의료용고압가스,경기도 파주시 법원읍 술이홀로 658-1,경기도 파주시 법원읍 대능리 432-11,37.8370149965,126.8553468863,영업,Y,Y,,경기도 파주시청,2024-07-30,4060000,경기도 파주시
삼원가스,의료용고압가스,경기도 파주시 하지석길 159,경기도 파주시 하지석동 405-2,37.7603468021,126.7441353253,영업,Y,Y,031-945-0289,경기도 파주시청,2024-07-30,4060000,경기도 파주시
대성종합가스,의료용고압가스,경기도 파주시 문산읍 화석정로 4,경기도 파주시 문산읍 선유리 310-2,37.8743997642,126.8066358803,영업,Y,Y,031-959-4204,경기도 파주시청,2024-07-30,4060000,경기도 파주시
반도특수가스,의료용고압가스,경기도 파주시 광탄면 장지산로 388,경기도 파주시 광탄면 분수리 291-17,37.7615453422,126.8649431012,영업,Y,Y,,경기도 파주시청,2024-07-30,4060000,경기도 파주시
(주)굿메디팜,일반종합도매,"부산광역시 동래구 금강로 19, 금정음악학원 3층 304호 (온천동)",부산광역시 동래구 온천동 397-32,35.21292252,129.0731152,영업,N,N,,부산광역시 동래구청,2024-07-25,3300000,부산광역시 동래구
새남성약업사,한약도매,"대구광역시 중구 중앙대로77길 45, 3층 7호",,35.86821855,128.5909786,영업,N,Y,053-255-0554,대구광역시 중구,2024-08-06,3410000,대구광역시 중구
보광약업사,한약도매,대구광역시 중구 남성로 8,,35.86888514,128.5878625,영업,N,Y,053-252-1380,대구광역시 중구,2024-08-06,3410000,대구광역시 중구
광진약업사,한약도매,대구광역시 중구 남성로 36,,35.86748605,128.5905504,영업,N,Y,053-253-6076,대구광역시 중구,2024-08-06,3410000,대구광역시 중구
상고당약업사,한약도매,대구광역시 중구 남성로 55,,35.8674542,128.5929679,영업,N,N,053-256-3121,대구광역시 중구,2024-08-06,3410000,대구광역시 중구
만수당약업사,한약도매,대구광역시 중구 남성로 51,,35.86728749,128.5923218,영업,N,Y,053-754-4814,대구광역시 중구,2024-08-06,3410000,대구광역시 중구
동화당약업사,한약도매,대구광역시 중구 남성로 27,,35.86797329,128.589891,영업,N,Y,053-256-5567,대구광역시 중구,2024-08-06,3410000,대구광역시 중구
대훈약업사,한약도매,대구광역시 중구 남성로 41-1,,35.86747023,128.5913097,영업,N,Y,053-256-3358,대구광역시 중구,2024-08-06,3410000,대구광역시 중구
보원약업사,한약도매,대구광역시 중구 달구벌대로415길 25,,35.86746665,128.5899211,영업,N,Y,053-253-3188,대구광역시 중구,2024-08-06,3410000,대구광역시 중구
동남약업사,한약도매,대구광역시 중구 남성로 45,,35.86736877,128.5915878,영업,N,Y,053-253-1030,대구광역시 중구,2024-08-06,3410000,대구광역시 중구
합천약업사,한약도매,대구광역시 중구 약령길 39,,35.86815626,128.588985,영업,N,Y,053-256-8933,대구광역시 중구,2024-08-06,3410000,대구광역시 중구
청산약업사,한약도매,"대구광역시 중구 중앙대로67길 10, 1층 117호",,35.8635084,128.5921861,영업,N,Y,053-427-1515,대구광역시 중구,2024-08-06,3410000,대구광역시 중구
편한 약업사,한약도매,"경상남도 창원시 의창구 의안로49번길 30, 창원공설시장 B동 108호 (북동)",경상남도 창원시 의창구 북동 249-1 창원공설시장,35.26618055,128.6206956,영업,Y,Y,,창원보건소,2023-07-11,5670000,경상남도 창원시
주안메디팜,일반종합도매,"경상남도 창원시 의창구 태복산로3번길 31-1, 가야빌딩 (도계동)",경상남도 창원시 의창구 도계동 404-5 가야빌딩,35.25470491,128.6369154,영업,Y,Y,,창원보건소,2023-07-11,5670000,경상남도 창원시
화성본초원,한약도매,"경상남도 창원시 의창구 평산로135번길 7, 1층 (서상동)",경상남도 창원시 의창구 서상동 706-8,35.3923358,128.6896663,영업,Y,Y,,창원보건소,2023-07-11,5670000,경상남도 창원시
엠알피(M.R.P.),일반종합도매,"경상남도 창원시 성산구 용지로 96, 하이페르 3층 312호 (중앙동)",경상남도 창원시 성산구 중앙동 95-1 하이페르,35.22412522,128.6780557,영업,Y,Y,,창원보건소,2023-07-11,5670000,경상남도 창원시
덕성팜,일반종합도매,"경상남도 창원시 의창구 남산로9번길 37, 302호 (팔용동)",경상남도 창원시 의창구 팔용동 193-14,35.26126463,128.6150231,영업,Y,Y,,창원보건소,2023-07-11,5670000,경상남도 창원시
(주)씨에스메디팜,일반종합도매,"경상남도 창원시 성산구 중앙대로 77, 동성올림픽타운 (중앙동)",경상남도 창원시 성산구 중앙동 97-2 동성올림픽타운 401호,35.22223335,128.6777326,영업,Y,Y,,창원보건소,2023-07-11,5670000,경상남도 창원시
주식회사 에스유메디칼,일반종합도매,"경상남도 창원시 의창구 중동중앙로 47, 어반브릭스 901호 (중동)",경상남도 창원시 의창구 중동 784-1 어반브릭스,35.25662601,128.6249983,영업,Y,Y,,창원보건소,2023-07-11,5670000,경상남도 창원시
와이지 약품,일반종합도매,"경상남도 창원시 의창구 팔용로 497, 202호 (팔용동)",경상남도 창원시 의창구 팔용동 187-12,35.25991679,128.616917,영업,Y,Y,,창원보건소,2023-07-11,5670000,경상남도 창원시
우수약품(주),일반종합도매,"경상남도 창원시 성산구 상남로 71, 창원코아상가 (상남동)",경상남도 창원시 성산구 상남동 73-4 창원코아상가,35.22044242,128.6795415,영업,Y,Y,,창원보건소,2023-07-11,5670000,경상남도 창원시
모두약품,일반종합도매,"경상남도 창원시 성산구 상남로 71, 창원코아상가 (상남동)",경상남도 창원시 성산구 상남동 73-4 창원코아상가 311호,35.22044242,128.6795415,영업,Y,Y,,창원보건소,2023-07-11,5670000,경상남도 창원시
엠에스컴퍼니,일반종합도매,"경상남도 창원시 의창구 대산면 진산대로 277-3, 1동 2층 일부호",경상남도 창원시 의창구 대산면 제동리 491-3,35.32594258,128.7152376,영업,Y,Y,,창원보건소,2023-07-11,5670000,경상남도 창원시
정약품,일반종합도매,경상남도 창원시 의창구 북면 천주로1165번길 32-11,경상남도 창원시 의창구 북면 신촌리 403-9,35.35650308,128.6077633,영업,Y,Y,,창원보건소,2023-07-11,5670000,경상남도 창원시
린데코리아주식회사,기타(의료용 고압가스),"경상남도 창원시 성산구 삼동로 100-31, 프렉스에어코리아(주) (내동)",경상남도 창원시 성산구 내동 452-6,35.22294917,128.6564973,영업,Y,Y,,창원보건소,2023-07-11,5670000,경상남도 창원시
인터내셔널인베스트먼트(주),일반종합도매,경상남도 창원시 의창구 대봉로 20 (봉림동),경상남도 창원시 의창구 봉림동 713-2,35.25086937,128.6672371,영업,Y,Y,,창원보건소,2023-07-11,5670000,경상남도 창원시
진주산소,기타(의료용 고압가스),"경상남도 창원시 의창구 차룡로48번길 57, 가스충전소 (팔용동)",경상남도 창원시 의창구 팔용동 39-14,35.24135201,128.6332627,영업,Y,Y,,창원보건소,2023-07-11,5670000,경상남도 창원시
주식회사 시제이팜,일반종합도매,"경상남도 창원시 의창구 대산면 진산대로 277-3, 2동 1층 일부호",경상남도 창원시 의창구 대산면 제동리 491-3,35.32594258,128.7152376,영업,Y,Y,,창원보건소,2023-07-11,5670000,경상남도 창원시
경원팜,일반종합도매,경상남도 창원시 의창구 대산면 진산대로 394-23,경상남도 창원시 의창구 대산면 제동리 262번지 3호,35.33512952,128.7105884,영업,Y,Y,,창원보건소,2023-07-11,5670000,경상남도 창원시
두루팜,일반종합도매,"경상남도 창원시 의창구 대산면 진산대로 277-3, 1,2동 1동1층,2동102호",경상남도 창원시 의창구 대산면 제동리 491-3,35.32594258,128.7152376,영업,Y,Y,,창원보건소,2023-07-11,5670000,경상남도 창원시
시올메디칼(주),일반종합도매,경상남도 창원시 성산구 연덕로184번길 33 (내동),경상남도 창원시 성산구 내동 456-24,35.21752515,128.669322,영업,Y,Y,,창원보건소,2023-07-11,5670000,경상남도 창원시
에코메디칼,일반종합도매,"경상남도 창원시 의창구 의창대로210번길 14, 1층 101호 (서상동)",경상남도 창원시 의창구 서상동 651번지 9호,35.26013169,128.6206375,영업,Y,Y,,창원보건소,2023-07-11,5670000,경상남도 창원시
주식회사 백건,일반종합도매,"경상남도 창원시 성산구 삼정자로 7, 남천프라자 5층 501호 (성주동)",경상남도 창원시 성산구 성주동 146번지 4호 남천프라자5층 501호,35.19812496,128.7063872,영업,Y,Y,,창원보건소,2023-07-11,5670000,경상남도 창원시
중동팜 주식회사,일반종합도매,경상남도 창원시 의창구 평산로159번길 35 (서상동),경상남도 창원시 의창구 서상동 698번지 8호,35.25560367,128.6202408,영업,Y,Y,,창원보건소,2023-07-11,5670000,경상남도 창원시
에스비팜,일반종합도매,"경상남도 창원시 성산구 신월로 42, 토월복합상가 6층 612호 (신월동)",경상남도 창원시 성산구 신월동 68번지 1호 토월시장,35.22223335,128.6777326,영업,Y,Y,,창원보건소,2023-07-11,5670000,경상남도 창원시
창인약품,일반종합도매,"경상남도 창원시 의창구 무역로503번길 17, 대동백화점 물류센터 (팔용동)",경상남도 창원시 의창구 팔용동 2-1,35.22592815,128.6349791,영업,Y,Y,,창원보건소,2023-07-11,5670000,경상남도 창원시
스마트팜,일반종합도매,"경상남도 창원시 성산구 상남로 89, 화신상가 (상남동)",경상남도 창원시 성산구 상남동 76-3 화신상가,35.22187418,128.680749,영업,Y,Y,,창원보건소,2023-07-11,5670000,경상남도 창원시
(주)바른약품,일반종합도매,경상남도 창원시 의창구 북면 천주로1165번길 32-11,경상남도 창원시 의창구 북면 신촌리 403-9,35.35650308,128.6077633,영업,Y,Y,,창원보건소,2023-07-11,5670000,경상남도 창원시
이에스팜,일반종합도매,"경상남도 창원시 의창구 평산로163번길 4-12, 1층 (서상동)",경상남도 창원시 의창구 서상동 687번지 9호,35.25725344,128.6234681,영업,Y,Y,,창원보건소,2023-07-11,5670000,경상남도 창원시
(주)엔알컴퍼니,일반종합도매,"경상남도 창원시 의창구 대산면 진산대로 277-3, 2동 103호",경상남도 창원시 의창구 대산면 제동리 491-3,35.32594258,128.7152376,영업,Y,Y,,창원보건소,2023-07-11,5670000,경상남도 창원시
세계약품,일반종합도매,"경상남도 창원시 의창구 북면 동전로110번길 8, 플래츠나인 2층 204호",경상남도 창원시 의창구 북면 감계리 56,35.30533048,128.5969404,영업,Y,Y,,창원보건소,2023-07-11,5670000,경상남도 창원시
(주)수메디팜,일반종합도매,"경상남도 창원시 의창구 남산로 31, 2층 (팔용동, 덕산다모아빌딩)",경상남도 창원시 의창구 팔용동 170번지 10호 덕산다모아빌딩 2층,35.25878053,128.6135217,영업,Y,Y,,창원보건소,2023-07-11,5670000,경상남도 창원시
황우,한약도매,"경상남도 창원시 성산구 상남로 260, 지하층 (신월동)",경상남도 창원시 성산구 신월동 1번지 3호,35.22223335,128.6777326,영업,Y,Y,,창원보건소,2023-07-11,5670000,경상남도 창원시
Sky pharm,일반종합도매,"경상남도 창원시 의창구 평산로207번길 4, 5층 505호 (서상동)",경상남도 창원시 의창구 서상동 666번지 5호 505호,35.26016946,128.625896,영업,Y,Y,,창원보건소,2023-07-11,5670000,경상남도 창원시
세한약품,일반종합도매,"경상남도 창원시 성산구 중앙대로 77, 동성올림픽타운 601호 (중앙동)",경상남도 창원시 성산구 중앙동 97-2 동성올림픽타운,35.22223335,128.6777326,영업,Y,Y,,창원보건소,2023-07-11,5670000,경상남도 창원시
청강약품,일반종합도매,"경상남도 창원시 의창구 팔용로 499 (팔용동, 삼진빌딩2층)",경상남도 창원시 의창구 팔용동 187번지 11호 삼진빌딩 2층,35.25999411,128.6170386,영업,Y,Y,,창원보건소,2023-07-11,5670000,경상남도 창원시
대동약품,일반종합도매,"경상남도 창원시 의창구 팔용로 499 (팔용동, 삼진빌딩2층)",경상남도 창원시 의창구 팔용동 187번지 11호 삼진빌딩 2층,35.25999411,128.6170386,영업,Y,Y,,창원보건소,2023-07-11,5670000,경상남도 창원시
제이에이치팜,일반종합도매,경상남도 창원시 의창구 도계로 47 (도계동),경상남도 창원시 의창구 도계동 326번지 17호,35.26021914,128.6371401,영업,Y,Y,,창원보건소,2023-07-11,5670000,경상남도 창원시
진메디팜,일반종합도매,경상남도 창원시 의창구 동읍 동읍로83번길 9,경상남도 창원시 의창구 동읍 용잠리 703,35.28324613,128.6814429,영업,Y,Y,,창원보건소,2023-07-11,5670000,경상남도 창원시
지엠팜,일반종합도매,"경상남도 창원시 성산구 중앙대로100번길 14, 스타타워즈오피스텔 13층 1316호 (상남동)",경상남도 창원시 성산구 상남동 76번지 1호 스타타워즈오피스텔,35.22238275,128.6811056,영업,Y,Y,,창원보건소,2023-07-11,5670000,경상남도 창원시
광우한약품,한약도매,경상남도 창원시 의창구 대산면 우암로99번길 56,창원시 의창구 대산면 유등리 802-2,35.3336665,128.7324296,영업,Y,Y,,창원보건소,2023-07-11,5670000,경상남도 창원시
경남나눔한약,한약도매,"경상남도 창원시 의창구 의안로12번길 3 (소답동, 102호)",경상남도 창원시 의창구 소답동 111-3,35.26275842,128.6242039,영업,Y,Y,,창원보건소,2023-07-11,5670000,경상남도 창원시
에이팜,일반종합도매,"경상남도 창원시 의창구 하남천서길9번길 20-10(도계동, 우성빌라)",경상남도 창원시 의창구 도계동 312-21 우성빌라,35.26122236,128.6379675,영업,Y,Y,,창원보건소,2023-07-11,5670000,경상남도 창원시
(주)세유홀딩스,일반종합도매,"경상남도 창원시 의창구 의안로27번길 19, 3층 (중동)",경상남도 창원시 의창구 중동 607번지,35.26386466,128.6217999802,영업,Y,Y,,창원보건소,2023-07-11,5670000,경상남도 창원시
씨앤메디칼,일반종합도매,"경상남도 창원시 의창구 의창대로282번길 9-4, 1층 (중동)",경상남도 창원시 의창구 중동 761번지 2호,35.26030737,128.6291966,영업,Y,Y,,창원보건소,2023-07-11,5670000,경상남도 창원시
(주)티에스팜,일반종합도매,"경상남도 창원시 의창구 대산면 진산대로 277-3, 2동 101호",경상남도 창원시 의창구 대산면 제동리 491-3,35.32594258,128.7152376,영업,Y,Y,,창원보건소,2023-07-11,5670000,경상남도 창원시
세인약품(주),일반종합도매,"경상남도 창원시 의창구 대봉로 20, 6층 604-1호 (봉림동)",경상남도 창원시 의창구 봉림동 713번지 2호,35.25086937,128.6672371,영업,Y,Y,,창원보건소,2023-07-11,5670000,경상남도 창원시
(주)디와이메디칼,일반종합도매,"경상남도 창원시 의창구 무역로 553, 2층 (팔용동)",경상남도 창원시 의창구 팔용동 8-53,35.22775495,128.6386761,영업,Y,Y,,창원보건소,2023-07-11,5670000,경상남도 창원시
온누리팜,일반종합도매,경상남도 창원시 의창구 의안로17번길 11 (중동),경상남도 창원시 의창구 북면 신촌리 995-1번지 대호상가 209호,35.2634303,128.6225976,영업,Y,Y,,창원보건소,2023-07-11,5670000,경상남도 창원시
케이에스메디팜,일반종합도매,"경상남도 창원시 의창구 대산면 진산대로 277-3, 2층",경상남도 창원시 의창구 대산면 제동리 491-3,35.32594258,128.7152376,영업,Y,Y,,창원보건소,2023-07-11,5670000,경상남도 창원시
씨에스메디팜,일반종합도매,경상남도 창원시 의창구 남산로9번길 50 (팔용동),경상남도 창원시 의창구 팔용동 195-13번지 3층,35.26100859,128.616245,영업,Y,Y,,창원보건소,2023-07-11,5670000,경상남도 창원시
(주)경원약품,일반종합도매,"경상남도 창원시 의창구 대산면 진산대로 277-3, 2동 1층 104호",경상남도 창원시 의창구 대산면 제동리 491-3,35.32594258,128.7152376,영업,Y,Y,,창원보건소,2023-07-11,5670000,경상남도 창원시
장백메디칼,일반종합도매,경상남도 창원시 의창구 북면 달천길 72,경상남도 창원시 의창구 북면 외감리 648,35.28825177,128.598872,영업,Y,Y,,창원보건소,2023-07-11,5670000,경상남도 창원시
(주)제이디팜,일반종합도매,경상남도 창원시 의창구 남산로 14 (팔용동),창원시 의창구 팔용동 165-4,35.25939835,128.6117138,영업,Y,Y,,창원보건소,2023-07-11,5670000,경상남도 창원시
(주)우진팜,일반종합도매,경상남도 창원시 의창구 사화로9번길 13 (팔용동),경상남도 창원시 팔용동 163-12,35.25838228,128.6097804,영업,Y,Y,,창원보건소,2023-07-11,5670000,경상남도 창원시
세화약품(주) 경남지점,일반종합도매,경상남도 창원시 의창구 의창대로54번길 14-16 (팔용동),경상남도 창원시 팔용동 151-7,35.25494745,128.6072101,영업,Y,Y,,창원보건소,2023-07-11,5670000,경상남도 창원시
(주)한중약품,일반종합도매,경상남도 창원시 의창구 동읍 동읍로 17-16,경상남도 창원시 의창구 동읍 용잠리 452번지 1호,35.27910335,128.6822404,영업,Y,Y,,창원보건소,2023-07-11,5670000,경상남도 창원시
건후유통,일반종합도매,경상남도 창원시 의창구 북면 마산길42번길 25-1,경상남도 창원시 의창구 북면 마산리 202번지,35.34226092,128.6182239,영업,Y,Y,,창원보건소,2023-07-11,5670000,경상남도 창원시
(주)라이프메딕스,일반종합도매,"경상남도 창원시 성산구 동산로220번길 25, 삼복빌딩 4층 (사파동)",경상남도 창원시 성산구 사파동 124-5 삼복빌딩,35.2243959,128.6988915,영업,Y,Y,,창원보건소,2023-07-11,5670000,경상남도 창원시
명성당건재한약품,한약도매,경상남도 창원시 의창구 도계로 37 (도계동),경상남도 창원시 도계동 327-14 일호상가 201호,35.26082215,128.636441,영업,Y,Y,,창원보건소,2023-07-11,5670000,경상남도 창원시
(주)젠스팜,일반종합도매,경상남도 창원시 의창구 남산로9번길 37 (팔용동),"경상남도 창원시 팔용동 193-14, 2층",35.26126463,128.6150231,영업,Y,Y,,창원보건소,2023-07-11,5670000,경상남도 창원시
계림약품,일반종합도매,"경상남도 창원시 의창구 동읍 의창대로915번길 2, 청담빌딩 3층",경상남도 창원시 의창구 동읍 용잠리 252-5 청담빌딩,35.27934984,128.6907768,영업,Y,Y,,창원보건소,2023-07-11,5670000,경상남도 창원시
삼우메디,일반종합도매,경상남도 창원시 의창구 서상로11번길 3 (동정동),경상남도 창원시 의창구 동정동 541번지 1호,35.26263334,128.6141033,영업,Y,Y,,창원보건소,2023-07-11,5670000,경상남도 창원시
대원당건재한약품,한약도매,경상남도 창원시 의창구 의안로28번길 1 (소답동),경상남도 창원시 소답동 108-18 1층,35.26405697,128.6240173,영업,Y,Y,,창원보건소,2023-07-11,5670000,경상남도 창원시
금성약품(주),일반종합도매,"경상남도 창원시 의창구 무역로503번길 17, 대동백화점 물류센터 204호 (팔용동)",경상남도 창원시 의창구 팔용동 2-1 대동백화점 물류센터,35.22592815,128.6349791,영업,Y,Y,,창원보건소,2023-07-11,5670000,경상남도 창원시
에스엠피㈜,일반종합도매,경상남도 창원시 의창구 의창대로116번길 2 (팔용동),경상남도 창원시 팔용동 167-2,35.2602907,128.6113318,영업,Y,Y,,창원보건소,2023-07-11,5670000,경상남도 창원시
삼일가스,기타(의료용 고압가스),경상남도 창원시 진해구 진해대로1114번길 122 (행암동),경상남도 창원시 진해구 행암동 31-5,35.1208696,128.7049918,영업,Y,Y,,진해보건소,2023-07-11,5670000,경상남도 창원시
진양특수가스,기타(의료용 고압가스),경상남도 창원시 진해구 진해대로1114번길 122 (행암동),경상남도 창원시 진해구 행암동 31-5,35.1208696,128.7049918,영업,Y,Y,,진해보건소,2023-07-11,5670000,경상남도 창원시
(주)엠에스신항만가스,기타(의료용 고압가스),"경상남도 창원시 진해구 용원로101번길 12, (주)엠에스 신항만가스 (용원동)",경상남도 창원시 진해구 용원동 1121,35.09920148,128.820724,영업,Y,Y,,진해보건소,2023-07-11,5670000,경상남도 창원시
"진해산소,일사가스",기타(의료용 고압가스),경상남도 창원시 진해구 진해대로1114번길 116 (행암동),경상남도 창원시 진해구 행암동 30-4,35.12128003,128.705798,영업,Y,Y,,진해보건소,2023-07-11,5670000,경상남도 창원시
제생당한약,한약도매,경상남도 창원시 진해구 백구로 71 (익선동),경상남도 창원시 진해구 익선동 24-3,35.15084007,128.6579498,영업,Y,Y,,진해보건소,2023-07-11,5670000,경상남도 창원시
대신당건재약품,한약도매,경상남도 창원시 진해구 충장로 357 (경화동),경상남도 창원시 진해구 경화동 972-7,35.15391376,128.6911033,영업,Y,Y,,진해보건소,2023-07-11,5670000,경상남도 창원시
본초당건재한약품,한약도매,경상남도 창원시 진해구 경화로 22-4 (경화동),경상남도 창원시 진해구 경화동 471,35.15530008,128.6865425,영업,Y,Y,,진해보건소,2023-07-11,5670000,경상남도 창원시
진해건재한약품,한약도매,경상남도 창원시 진해구 이동로 40-1 (이동),경상남도 창원시 진해구 이동 611-2,35.1507936,128.6963003,영업,Y,Y,,진해보건소,2023-07-11,5670000,경상남도 창원시
하남약품,일반종합도매,"경상남도 창원시 마산합포구 현동7길 35, 2층 202호 (현동)",경상남도 창원시 마산합포구 현동 380,35.1503475,128.5535564,영업,Y,N,,마산보건소,2023-07-11,5670000,경상남도 창원시
엠제이팜,일반종합도매,"경상남도 창원시 마산회원구 내서읍 삼계8길 31, 제상가동 2층 201호 (화성아파트)",경상남도 창원시 마산회원구 내서읍 삼계리 14 화성아파트,35.23325501,128.5005731,영업,Y,N,,마산보건소,2023-07-11,5670000,경상남도 창원시
이산메디케어,일반종합도매,"경상남도 창원시 마산회원구 회성남8길 137, 308호 (회성동)",경상남도 창원시 마산회원구 회성동 129-3,35.23199703,128.556838,영업,Y,N,,마산보건소,2023-07-11,5670000,경상남도 창원시
창신에너지(주),기타(의료용 고압가스),경상남도 창원시 마산회원구 내서읍 광려천남로 135,경상남도 창원시 마산회원구 내서읍 중리 1127-35,35.24141302,128.5065761,영업,Y,Y,,마산보건소,2023-07-11,5670000,경상남도 창원시
우솔약품,일반종합도매,"경상남도 창원시 마산합포구 현동4길 5, 성원빌딩 제501-2호 (현동)",경상남도 창원시 마산합포구 현동 370,35.15089596,128.5531936,영업,Y,N,,마산보건소,2023-07-11,5670000,경상남도 창원시
이유팜주식회사,일반종합도매,"경상남도 창원시 마산회원구 내서읍 광려천남로 59, 경남로봇랜드재단 2층 216호",경상남도 창원시 마산회원구 내서읍 중리 1121-9 경남로봇랜드재단,35.24632294,128.5112411,영업,Y,N,,마산보건소,2023-07-11,5670000,경상남도 창원시
주식회사에스에이치팜,일반종합도매,"경상남도 창원시 마산회원구 내서읍 죽암로 77-13, 팔래스오피스텔 112호",경상남도 창원시 마산회원구 내서읍 중리 794-4 팔래스오피스텔 112호,35.25880529,128.5091696,영업,Y,N,,마산보건소,2023-07-11,5670000,경상남도 창원시
장수약품,일반종합도매,"경상남도 창원시 마산회원구 회성남8길 137, 지상3층 303호 (회성동)",경상남도 창원시 마산회원구 회성동 129-3,35.23199703,128.556838,영업,Y,N,,마산보건소,2023-07-11,5670000,경상남도 창원시
대성종합가스,기타(의료용 고압가스),"경상남도 창원시 마산합포구 어시장8길 58, 지상1층 (남성동)",경상남도 창원시 마산합포구 남성동 245-1,35.2019601,128.5761863,영업,Y,Y,,마산보건소,2023-07-11,5670000,경상남도 창원시
영우약품주식회사,일반종합도매,"경상남도 창원시 마산합포구 성호동1길 1, 지로빌딩 5층 (추산동)",경상남도 창원시 마산합포구 추산동 1-55 지로빌딩,35.2105221,128.5721756,영업,Y,N,,마산보건소,2023-07-11,5670000,경상남도 창원시
동경약품,일반종합도매,"경상남도 창원시 마산회원구 내서읍 중리1길 103, 진한빌딩 지상6층",경상남도 창원시 마산회원구 내서읍 중리 1033 동의당한약국,35.24991856,128.5099682,영업,Y,N,,마산보건소,2023-07-11,5670000,경상남도 창원시
제이에스팜,일반종합도매,"경상남도 창원시 마산합포구 문화북1길 65, 202호 (두월동2가, 두월동 상우 the 헤라우스)",경상남도 창원시 마산합포구 두월동 2가 7-1 두월동 상우 the 헤라우스 202호,35.18611012,128.5605708,영업,Y,N,,마산보건소,2023-07-11,5670000,경상남도 창원시
엔씨메디팜,일반종합도매,"경상남도 창원시 마산합포구 현동로 50, 중앙빌딩 4층 401호 (현동)",경상남도 창원시 마산합포구 현동 371,35.15109232,128.5535471,영업,Y,N,,마산보건소,2023-07-11,5670000,경상남도 창원시
태하약품,일반종합도매,"경상남도 창원시 마산합포구 현동7길 28, 3층 302-1호 (현동)",경상남도 창원시 마산합포구 현동 377 3층 302-1호,35.14999218,128.5544031,영업,Y,N,,마산보건소,2023-07-11,5670000,경상남도 창원시
피피팜,일반종합도매,"경상남도 창원시 마산합포구 진동면 동촌길 185, 101동 706호 (마산 신화하니엘 더 마린)",경상남도 창원시 마산합포구 진동면 진동리 201 마산 신화하니엘 더 마린 101동 706호,35.11160134,128.4882958,영업,Y,N,,마산보건소,2023-07-11,5670000,경상남도 창원시
동성약품,일반종합도매,"경상남도 창원시 마산회원구 3·15대로 874, 더 마크원 오피스텔 1304호 (구암동)",경상남도 창원시 마산회원구 구암동 78-5 더 마크원 오피스텔,35.2466921,128.5920656,영업,Y,N,,마산보건소,2023-07-11,5670000,경상남도 창원시
도경약품,일반종합도매,"경상남도 창원시 마산회원구 회성남8길 137, 3층 302호 (회성동)",경상남도 창원시 마산회원구 회성동 129-3 302호,35.23199703,128.556838,영업,Y,N,,마산보건소,2023-07-11,5670000,경상남도 창원시
한성약품,일반종합도매,"경상남도 창원시 마산회원구 회성남8길 137, 3층 301호 (회성동)",경상남도 창원시 마산회원구 회성동 129번지 3호 301호,35.23199703,128.556838,영업,Y,N,,마산보건소,2023-07-11,5670000,경상남도 창원시
명지약품,일반종합도매,"경상남도 창원시 마산회원구 회성남8길 137, 3층 306호 (회성동)",경상남도 창원시 마산회원구 회성동 129번지 3호,35.23199703,128.556838,영업,Y,N,,마산보건소,2023-07-11,5670000,경상남도 창원시
(주)대명메디컬,일반종합도매,"경상남도 창원시 마산회원구 회성남8길 137, 지상3층 312호 (회성동)",경상남도 창원시 마산회원구 회성동 129-3,35.23199703,128.556838,영업,Y,N,,마산보건소,2023-07-11,5670000,경상남도 창원시
명진약품,일반종합도매,"경상남도 창원시 마산회원구 내서읍 숲속로 20-2, 그린빌딩 2층 202호",경상남도 창원시 마산회원구 내서읍 삼계리 507번지 7호 202호,35.22991348,128.4968168,영업,Y,N,,마산보건소,2023-07-11,5670000,경상남도 창원시
메디로직스,일반종합도매,"경상남도 창원시 마산회원구 회성남8길 137, 1,2층 (회성동)",경상남도 창원시 마산회원구 회성동 129번지 3호,35.23199703,128.556838,영업,Y,Y,,마산보건소,2023-07-11,5670000,경상남도 창원시
그린메디,일반종합도매,"경상남도 창원시 마산회원구 내서읍 숲속로 13-1, 삼계숲속독서실 1층 101호",경상남도 창원시 마산회원구 내서읍 삼계리 527번지 삼계숲속독서실,35.23045591,128.4975555,영업,Y,N,,마산보건소,2023-07-11,5670000,경상남도 창원시
(주)일성약품,일반종합도매,"경상남도 창원시 마산회원구 회성남8길 137, 메디로직스 3층 310호 (회성동)",경상남도 창원시 마산회원구 회성동 129번지 3호,35.23199703,128.556838,영업,Y,N,,마산보건소,2023-07-11,5670000,경상남도 창원시
새봄약품,일반종합도매,경상남도 창원시 마산합포구 교방시장2길 21 (교방동),경상남도 창원시 마산합포구 교방동 511 교방주공시장㈜,35.21671033,128.562357,영업,Y,N,,마산보건소,2023-07-11,5670000,경상남도 창원시
슈퍼케미칼,일반종합도매,"경상남도 창원시 마산합포구 회원동북로 70, 지상2층 (산호동)",경상남도 창원시 마산합포구 산호동 49-4,35.21814841,128.5800206,영업,Y,Y,,마산보건소,2023-07-11,5670000,경상남도 창원시
시지팜,일반종합도매,"경상남도 창원시 마산회원구 합포로 274, 한진오피스텔 311호 (양덕동)",경상남도 창원시 마산회원구 양덕동 153-8 한진오피스텔 311호,35.22164019,128.5875528,영업,Y,N,,마산보건소,2023-07-11,5670000,경상남도 창원시
에스메디팜 주식회사,일반종합도매,경상남도 창원시 마산회원구 회성남7길 27 (회성동),경상남도 창원시 마산회원구 회성동 446번지 2호,35.23260793,128.5572417,영업,Y,N,,마산보건소,2023-07-11,5670000,경상남도 창원시
(주)삼진산업가스,기타(의료용 고압가스),경상남도 창원시 마산합포구 진동면 입곡길 176,경상남도 창원시 마산합포구 인곡리 784-2,35.13805027,128.513312,영업,Y,Y,,마산보건소,2023-07-11,5670000,경상남도 창원시
(주)디아이팜,일반종합도매,경상남도 창원시 마산회원구 내서읍 중리공단로 105 (공단편의점),경상남도 창원시 마산회원구 내서읍 중리 1127-10,35.24074932,128.5092107,영업,Y,N,,마산보건소,2023-07-11,5670000,경상남도 창원시
와이지메디컬,일반종합도매,"경상남도 창원시 마산합포구 용마로 47, 지상2층 201호 (산호동)",경상남도 창원시 마산합포구 산호동 49-5,35.21808728,128.5798368,영업,Y,N,,마산보건소,2023-07-11,5670000,경상남도 창원시
도성종합가스,기타(의료용 고압가스),경상남도 창원시 마산합포구 진북면 진북산업로 489 (도성산소),경상남도 창원시 마산합포구 진북면 추곡리 577-3,35.15728362,128.4746311,영업,Y,Y,,마산보건소,2023-07-11,5670000,경상남도 창원시
제이팜,일반종합도매,"경상남도 창원시 마산회원구 양덕천길 47 (양덕동, 유한미소안아파트)",경상남도 창원시 마산회원구 양덕동 49-2,35.23129865,128.5871174,영업,Y,N,,마산보건소,2023-07-11,5670000,경상남도 창원시
(주)대원투팜,일반종합도매,경상남도 창원시 마산회원구 삼호로 269-1 (회성동),경상남도 창원시 마산회원구 회성동 467-5,35.23214386,128.5651517,영업,Y,N,,마산보건소,2023-07-11,5670000,경상남도 창원시
제이앤팜,일반종합도매,"경상남도 창원시 마산합포구 북성로 87, 마산제일외과의원 지상3층 (상남동)",경상남도 창원시 마산합포구 상남동 1번지 66호 마산제일외과의원 지상3층,35.21500305,128.5704121,영업,Y,N,,마산보건소,2023-07-11,5670000,경상남도 창원시
나은한약품,한약도매,"경상남도 창원시 마산합포구 어시장7길 126, 203호 (동성동)","경상남도 창원시 마산합포구 동성동 313, 203호",35.20410405,128.5787114,영업,Y,N,,마산보건소,2023-07-11,5670000,경상남도 창원시
에이팜,일반종합도매,경상남도 창원시 마산회원구 내서읍 중리상곡로 134,경상남도 창원시 마산회원구 내서읍 중리 1036,35.25155229,128.5116096,영업,Y,N,,마산보건소,2023-07-11,5670000,경상남도 창원시
명성약품,일반종합도매,"경상남도 창원시 마산회원구 석전동6길 37, 지상2층 202호 (석전동)",경상남도 창원시 마산회원구 석전동 258-7,35.22996465,128.5750931,영업,Y,N,,마산보건소,2023-07-11,5670000,경상남도 창원시
동아에스티(주)창원지점,일반종합도매,경상남도 창원시 마산회원구 내서읍 중리공단로 187,경상남도 창원시 마산회원구 내서읍 중리 1119-14,35.24694663,128.5141576,영업,Y,N,,마산보건소,2023-07-11,5670000,경상남도 창원시
㈜경남지오영,일반종합도매,경상남도 창원시 마산회원구 내서읍 호원로 411,경상남도 창원시 마산회원구 내서읍 평성리 491,35.26798306,128.5296114,영업,Y,Y,,마산보건소,2023-07-11,5670000,경상남도 창원시
신안당건재한약품,한약도매,경상남도 창원시 마산회원구 합성동11길 100 (합성동),경상남도 창원시 마산회원구 합성2동 322번지 26호,35.24067653,128.5875411,영업,Y,N,,마산보건소,2023-07-11,5670000,경상남도 창원시
산들초한약품,한약도매,경상남도 창원시 마산회원구 석전동6길 6 (석전동),경상남도 창원시 마산회원구 석전2동 248번지 10호,35.23126392,128.575831,영업,Y,Y,,마산보건소,2023-07-11,5670000,경상남도 창원시
중앙한약품,한약도매,경상남도 창원시 마산합포구 3·15대로 248 (중앙동3가),경상남도 창원시 마산합포구 중앙동3가 4번지 34호,35.20027778,128.5675708,영업,Y,Y,,마산보건소,2023-07-11,5670000,경상남도 창원시
삼근당한약품,한약도매,"경상남도 창원시 마산합포구 산호시장길 12, 2층 (산호동)",경상남도 창원시 마산합포구 산호동 31번지 1호,35.21796769,128.5815411,영업,Y,N,,마산보건소,2023-07-11,5670000,경상남도 창원시
화영산소,원료의약품도매,경상남도 창원시 마산회원구 양덕동2길 81 (양덕동),경상남도 창원시 마산회원구 양덕동 157-32,35.22488701,128.5884702,영업,Y,Y,,마산보건소,2023-07-11,5670000,경상남도 창원시
누리허브,한약도매,"경상남도 창원시 마산회원구 내서읍 중리상곡로 20, 204호 (백로아파트)",경상남도 창원시 마산회원구 내서읍 중리 1054번지,35.24351122,128.5051116,영업,Y,N,,마산보건소,2023-07-11,5670000,경상남도 창원시
(주)유성팜,일반종합도매,"경상남도 창원시 마산합포구 현동4길 5, 성원빌딩 3층 306호 (현동)",경상남도 창원시 마산합포구 현동 370번지 성원빌딩 3층 306호,35.15089596,128.5531936,영업,Y,N,,마산보건소,2023-07-11,5670000,경상남도 창원시
삼신약품,일반종합도매,경상남도 창원시 마산회원구 양덕로 163 (양덕동),경상남도 창원시 마산회원구 양덕2동 65번지 2호,35.23253555,128.5824474,영업,Y,N,,마산보건소,2023-07-11,5670000,경상남도 창원시
(주)복산나이스 경남지점,일반종합도매,경상남도 창원시 마산회원구 내서읍 중리공단로 211,경상남도 창원시 마산회원구 내서읍 중리 1118-9,35.24825282,128.5164807,영업,Y,Y,,마산보건소,2023-07-11,5670000,경상남도 창원시
(주)보람약품,일반종합도매,경상남도 창원시 마산회원구 내서읍 호원로 385,경상남도 창원시 마산회원구 내서읍 호계리 13번지 2호 상보빌딩 5층,35.26677122,128.5274318,영업,Y,N,,마산보건소,2023-07-11,5670000,경상남도 창원시
(주)대명약품,일반종합도매,경상남도 창원시 마산합포구 산호동2길 26 (산호동),경상남도 창원시 마산합포구 산호동 208-7,35.21738248,128.5881035,영업,Y,N,,마산보건소,2023-07-11,5670000,경상남도 창원시
디케이팜,일반종합도매,경상남도 창원시 마산회원구 내서읍 중리1길 103,경상남도 창원시 마산회원구 중리 1033,35.24991856,128.5099682,영업,Y,N,,마산보건소,2023-07-11,5670000,경상남도 창원시
(주)정인약품,일반종합도매,경상남도 창원시 마산합포구 성호동1길 1 (추산동),경상남도 창원시 마산합포구 추산동 1-55,35.2105221,128.5721756,영업,Y,N,,마산보건소,2023-07-11,5670000,경상남도 창원시
드림팜,일반종합도매,경상남도 창원시 마산합포구 해안대로 289 (신포동1가),경상남도 창원시 마산합포구 교방동 183-5,35.19925797,128.572988,영업,Y,N,,마산보건소,2023-07-11,5670000,경상남도 창원시
봉수당건재한약품,한약도매,경상남도 창원시 마산회원구 회원북21길 42 (회원동),경상남도 창원시 마산회원구회원2동 1011-47,35.22049264,128.5663035,영업,Y,Y,,마산보건소,2023-07-11,5670000,경상남도 창원시
한성당건재한약품,한약도매,경상남도 창원시 마산합포구 교방천북길 275 (상남동),경상남도 창원시 마산합포구 상남동 230-8,35.20955435,128.5767492,영업,Y,Y,,마산보건소,2023-07-11,5670000,경상남도 창원시
만수당건재한약품,한약도매,경상남도 창원시 마산합포구 문화남2길 61 (두월동3가),경상남도 창원시 마산합포구 두월3가 6-12,35.18513607,128.5597233,영업,Y,Y,,마산보건소,2023-07-11,5670000,경상남도 창원시
(주)평화산소,기타(의료용 고압가스),경상남도 창원시 마산합포구 진북면 정현공단길 113,경상남도 창원시 마산합포구 진북면 정현리 785-6,35.17552556,128.464023,영업,Y,Y,,마산보건소,2023-07-11,5670000,경상남도 창원시
평화당한약품,한약도매,경상남도 창원시 마산회원구 양덕북9길 3 (양덕동),경상남도 창원시 마산회원구 양덕1동 832-15,35.23590788,128.5876351,영업,Y,Y,,마산보건소,2023-07-11,5670000,경상남도 창원시
한신메디팜,일반종합도매,"경기도 의정부시 시민로434번길 11, 3층 305호 (용현동)",경기도 의정부시 용현동 209-17,37.73197075,127.0804029,영업,Y,Y,070-8830-3045,의정부시보건소,2024-07-15,3820000,경기도 의정부시
디에이팜,일반종합도매,"경기도 의정부시 시민로434번길 11, 3층 318호 (용현동)",경기도 의정부시 용현동 209번지 17호,37.73197075,127.0804029,영업,Y,Y,031-821-4770,의정부시보건소,2024-07-15,3820000,경기도 의정부시
주식회사 히어로팜,일반종합도매,"경기도 의정부시 전좌로156번길 24, 상가동 지1층 비01호 (호원동, 호원동한승미메이드아파트)",경기도 의정부시 호원동 289번지 7호 호원동한승미메이드아파트,37.72233318,127.0417214,영업,Y,Y,031-855-1020,의정부시보건소,2024-07-15,3820000,경기도 의정부시
(주)올댓팜,일반종합도매,"경기도 의정부시 동일로 713, 313호 (금오동)",경기도 의정부시 금오동 439,37.7504218104,127.0505001192,영업,Y,Y,031-592-7511,의정부시보건소,2024-07-15,3820000,경기도 의정부시
이지젠,일반종합도매,"경기도 의정부시 오목로205번길 21, 407호 (민락동)",경기도 의정부시 민락동 812-4,37.74498164,127.0973744,영업,Y,Y,031-853-4353,의정부시보건소,2024-07-15,3820000,경기도 의정부시
다원약품,일반종합도매,"경기도 의정부시 시민로434번길 11, 307호 (용현동)",경기도 의정부시 용현동 209번지 17호,37.73197075,127.0804029,영업,Y,Y,031-874-7774,의정부시보건소,2024-07-15,3820000,경기도 의정부시
케이디엠팜,일반종합도매,"경기도 의정부시 시민로434번길 11, 310호 (용현동)",경기도 의정부시 용현동 209번지 17호,37.73197075,127.0804029,영업,Y,Y,070-4114-9636,의정부시보건소,2024-07-15,3820000,경기도 의정부시
주식회사 다올약품,일반종합도매,"경기도 의정부시 월유로 13, 지석프라자 5층 509호 (산곡동)",경기도 의정부시 산곡동 0 지석프라자,37.72923476,127.1104675,영업,Y,Y,031-846-8424,의정부시보건소,2024-07-15,3820000,경기도 의정부시
경서약품 주식회사,일반종합도매,"경기도 의정부시 시민로434번길 11, 3층 312호 (용현동)",경기도 의정부시 용현동 209번지 17호,37.73197075,127.0804029,영업,Y,Y,031-848-1626,의정부시보건소,2024-07-15,3820000,경기도 의정부시
에스제이팜,일반종합도매,"경기도 의정부시 부용로219번길 45, 용현빌딩 4층 (용현동)",경기도 의정부시 용현동 544번지 4호 용현빌딩,37.75081601,127.0820228,영업,Y,Y,070-7576-3409,의정부시보건소,2024-07-15,3820000,경기도 의정부시
㈜인천유니온약품,일반종합도매,"서울특별시 영등포구선유로9, 유니온빌딩 302호(문래동5가)",,37.5147958387,126.8874812341,영업,Y,Y,02-2635-1800,서울특별시 영등포구,2024-08-01,3180000,서울특별시 영등포구
케이엘팜,일반종합도매,"서울특별시 영등포구선유로9,402-2(문래동5가)",,37.5147958387,126.8874812341,영업,Y,Y,02-2633-3179,서울특별시 영등포구,2024-08-01,3180000,서울특별시 영등포구
㈜대림물산,원료의약품도매,"서울특별시 영등포구양평로28길 32-3,2층(양평동5가)",,37.5421593388,126.8924117372,영업,Y,Y,02-2636-7979,서울특별시 영등포구,2024-08-01,3180000,서울특별시 영등포구
정원약품,일반종합도매,"서울특별시 영등포구양평로 30길 22 ,별관 2층 202호(양평동6가)",,37.5420270427,126.888973094,영업,Y,Y,02-875-7719,서울특별시 영등포구,2024-08-01,3180000,서울특별시 영등포구
(주)티에스바이오팜,일반종합도매,"대전광역시 동구 한밭대로 1221, 201호 (용전동)",대전광역시 동구 용전동 11-7,36.35834638,127.4340698,영업,Y,N,042-625-5272,대전광역시 동구청,2024-08-01,3640000,대전광역시 동구
(주)디에이치메디칼,일반종합도매,"경기도 의정부시 부용로219번길 45, 용현빌딩 3층 301호 (용현동)",경기도 의정부시 용현동 544-4 용현빌딩,37.75081601,127.0820228,영업,Y,Y,070-8693-3055,의정부시보건소,2024-07-15,3820000,경기도 의정부시
지한팜,일반종합도매,"경기도 의정부시 시민로434번길 11, 308호 (용현동)",경기도 의정부시 용현동 209-17,37.73197075,127.0804029,영업,Y,Y,,의정부시보건소,2024-07-15,3820000,경기도 의정부시
(주)지인약품,일반종합도매,"경기도 의정부시 동일로 732, 2층 (금오동)",경기도 의정부시 금오동 441-65,37.7520590667,127.0492936103,영업,Y,Y,031-928-7225,의정부시보건소,2024-07-15,3820000,경기도 의정부시
주식회사 뉴믹스메디컬그룹,일반종합도매,"경기도 의정부시 용현로105번길 7-16, 2층 201호 (민락동)",경기도 의정부시 민락동 734-6,37.74177714,127.0870509,영업,Y,Y,,의정부시보건소,2024-07-15,3820000,경기도 의정부시
주식회사 미르팜,일반종합도매,"경기도 의정부시 시민로434번길 11, 317호 (용현동)",경기도 의정부시 용현동 209-17,37.73197075,127.0804029,영업,Y,Y,,의정부시보건소,2024-07-15,3820000,경기도 의정부시
(주)하나로메디,일반종합도매,"경기도 의정부시 시민로434번길 11, 3층 315호 (용현동)",경기도 의정부시 용현동 209-17,37.73197075,127.0804029,영업,Y,Y,070-4243-9776,의정부시보건소,2024-07-15,3820000,경기도 의정부시
주식회사 제너사이언스,일반종합도매,"경기도 의정부시 시민로434번길 11, 314호 (용현동)",경기도 의정부시 용현동 209-17,37.73197075,127.0804029,영업,Y,Y,,의정부시보건소,2024-07-15,3820000,경기도 의정부시
메디닉스,일반종합도매,"경기도 의정부시 시민로434번길 11, 3층 306호 (용현동)",경기도 의정부시 용현동 209-17,37.73197075,127.0804029,영업,Y,Y,,의정부시보건소,2024-07-15,3820000,경기도 의정부시
엔디팜,일반종합도매,"경기도 의정부시 오목로225번길 157, 폴리프라자Ⅲ 6층 602호 (민락동)",경기도 의정부시 민락동 809 폴리프라자Ⅲ,37.74507726,127.0961374,영업,Y,Y,,의정부시보건소,2024-07-15,3820000,경기도 의정부시
한빛메디칼,일반종합도매,대구광역시 수성구 화랑로12길 8,,35.87097718,128.6342803,영업,N,N,053-000-0000,대구광역시 수성구,2024-07-15,3460000,대구광역시 수성구
홍제약업사,한약도매,대구광역시 남구 명덕로14길 23 (대명동),대구광역시 남구 대명동 2561-13,35.8575463,128.5770592,영업,Y,Y,053-627-1234,대구광역시 남구청,2024-07-24,3440000,대구광역시 남구
(주)아스트로젠,일반종합도매,"대구광역시 중구 동덕로8길 26-14, 2층",,35.85941837,128.6060709,영업,N,N,053-254-8850,대구광역시 중구,2024-08-06,3410000,대구광역시 중구
제이케이약품,일반종합도매,"대구광역시 중구 동성로1길 25, 3층",,35.8668742,128.5949043055,영업,N,N,053-719-4090,대구광역시 중구,2024-08-06,3410000,대구광역시 중구
현후약품,일반종합도매,"대구광역시 중구 중앙대로66길 20, 304동 101호",,35.86173536,128.5933442,영업,N,N,053-423-0503,대구광역시 중구,2024-08-06,3410000,대구광역시 중구
다정약품,일반종합도매,"대구광역시 중구 남산로 44-25, 3층",,35.86110879,128.5832747,영업,N,N,,대구광역시 중구,2024-08-06,3410000,대구광역시 중구
엘제이팜,일반종합도매,"대구광역시 중구 동성로 58-1, 2층",,35.87200605,128.5960455,영업,N,N,,대구광역시 중구,2024-08-06,3410000,대구광역시 중구
길약품,일반종합도매,"대구광역시 중구 명륜로26길 35, 3층",,35.85838969,128.5973273,영업,N,N,,대구광역시 중구,2024-08-06,3410000,대구광역시 중구
하나메디팜,일반종합도매,"대구광역시 중구 달구벌대로443길 35, 1층",,35.86452348,128.605357,영업,N,N,053-422-9671,대구광역시 중구,2024-08-06,3410000,대구광역시 중구
올메디,일반종합도매,"대구광역시 중구 국채보상로 586, 16층 1693호",,35.87059708,128.5948168,영업,N,N,053-254-5751,대구광역시 중구,2024-08-06,3410000,대구광역시 중구
주식회사 라온약품,일반종합도매,"대구광역시 중구 대봉로 214, 3층",,35.85786176,128.6019624,영업,N,N,053-472-5567,대구광역시 중구,2024-08-06,3410000,대구광역시 중구
현진바이오,일반종합도매,"대구광역시 중구 명륜로 6, 3층 302호",,35.86571898,128.5879039,영업,N,N,053-422-7585,대구광역시 중구,2024-08-06,3410000,대구광역시 중구
다온메디칼,일반종합도매,"대구광역시 중구 동덕로8길 20-4, 101호",,35.85911401,128.605659,영업,N,N,054-433-7887,대구광역시 중구,2024-08-06,3410000,대구광역시 중구
강구약품,일반종합도매,"대구광역시 중구 명덕로 59, 2층",,35.85905463,128.5775132,영업,N,Y,053-255-4805,대구광역시 중구,2024-08-06,3410000,대구광역시 중구
현진약품,일반종합도매,"대구광역시 중구 명덕로 261, 3층",,35.85579653,128.5986032,영업,N,N,053-765-2402,대구광역시 중구,2024-08-06,3410000,대구광역시 중구
(주)노보파마,일반종합도매,"대구광역시 중구 국채보상로139길 51, 3층",,35.8714237,128.6061294,영업,N,Y,053-242-5052,대구광역시 중구,2024-08-06,3410000,대구광역시 중구
유진팜,일반종합도매,"대구광역시 중구 남산로8길 8, 1동 202호",,35.85756316,128.5875987,영업,N,N,053-766-7010,대구광역시 중구,2024-08-06,3410000,대구광역시 중구
덕일약품,일반종합도매,대구광역시 중구 달구벌대로440길 23,,35.86186091,128.6042959,영업,N,Y,053-425-0048,대구광역시 중구,2024-08-06,3410000,대구광역시 중구
보성약업사,한약도매,대구광역시 중구 달성공원로8길 31-11,,35.87397899,128.5815641,영업,N,Y,,대구광역시 중구,2024-08-06,3410000,대구광역시 중구
청도약업사,한약도매,대구광역시 중구 남성로 41-2,,35.86747737,128.5914102,영업,N,Y,053-254-9727,대구광역시 중구,2024-08-06,3410000,대구광역시 중구
금산당약업사,한약도매,대구광역시 중구 국채보상로 452,,35.87024588,128.5800419,영업,N,Y,053-254-5175,대구광역시 중구,2024-08-06,3410000,대구광역시 중구
삼성약업사,한약도매,대구광역시 중구 남성로 40-1,,35.86729028,128.5911046,영업,N,Y,053-582-1075,대구광역시 중구,2024-08-06,3410000,대구광역시 중구
감초당약업사,한약도매,대구광역시 중구 남성로 5,,35.86916753,128.5878991,영업,N,Y,053-254-5574,대구광역시 중구,2024-08-06,3410000,대구광역시 중구
이건무역,한약도매,대구광역시 중구 국채보상로150길 65-3,,35.86552286,128.6108982,영업,N,Y,,대구광역시 중구,2024-08-06,3410000,대구광역시 중구
화춘당약업사,한약도매,대구광역시 중구 남성로 28-1,,35.86777492,128.5898727,영업,N,Y,053-255-3925,대구광역시 중구,2024-08-06,3410000,대구광역시 중구
선도산업(주),의료용고압가스,인천광역시 서구 사렴로65번길 42 (경서동),,37.55460032,126.6359481,영업,Y,Y,032-568-1451,인천광역시 서구보건소,2024-08-06,3560000,인천광역시 서구
아진산업가스(주),의료용고압가스,인천광역시 서구 봉수대로300번길 42 (석남동),,37.50206563,126.666375,영업,Y,Y,032-578-8884,인천광역시 서구보건소,2024-08-06,3560000,인천광역시 서구
영종종합가스,의료용고압가스,"인천광역시 서구 방축로 359 (가좌동, 영종가스)",,37.47392944,126.6829299,영업,Y,Y,032-578-5556,인천광역시 서구보건소,2024-08-06,3560000,인천광역시 서구
화덕약품(주),원료의약품도매,인천광역시 서구 길주로 69-1 (석남동),,37.50676057,126.6697087,영업,Y,Y,032-582-4435,인천광역시 서구보건소,2024-08-06,3560000,인천광역시 서구
동양종합가스,기타,대구광역시 중구 태평로 241,,35.87313865,128.6038612,영업,N,N,053-425-1616,대구광역시 중구,2024-08-06,3410000,대구광역시 중구
메디존,일반종합도매,"대전광역시 유성구 학하중앙로149번길 8, 4층 402호, 5층 (학하동)",대전광역시 유성구 학하동 717-10,36.34064028,127.309235,영업,N,N,,대전광역시 유성구보건소 보건의약과,2024-07-12,3670000,대전광역시 유성구
일강약품 주식회사,일반종합도매,"대전광역시 유성구 대정로28번안길 21, 1층 (대정동)",대전광역시 유성구 대정동 312-8,36.31362419,127.3208539,영업,N,Y,,대전광역시 유성구보건소 보건의약과,2024-07-12,3670000,대전광역시 유성구
주식회사 조약품,일반종합도매,대전광역시 유성구 진잠로 132 (원내동),대전광역시 유성구 원내동 73-5,36.30287265,127.3161703,영업,N,Y,,대전광역시 유성구보건소 보건의약과,2024-07-12,3670000,대전광역시 유성구
별하,일반종합도매,"대전광역시 유성구 덕명로81번길 7, 101호 일부 (덕명동)",대전광역시 유성구 덕명동 533-5,36.35757383,127.3075258,영업,N,N,,대전광역시 유성구보건소 보건의약과,2024-07-12,3670000,대전광역시 유성구
(주)이월팜,일반종합도매,대구광역시 수성구 지범로 49,,35.8262726896,128.6275742235,영업,Y,N,,대구광역시 수성구,2024-07-15,3460000,대구광역시 수성구
에이케이팜(AK팜),일반종합도매,대구광역시 수성구 알파시티1로4길 22,,35.840053637,128.6872987755,영업,N,N,,대구광역시 수성구,2024-07-15,3460000,대구광역시 수성구
수약품,일반종합도매,대구광역시 수성구 교학로11길 33,,35.8507078369,128.6538908983,영업,N,N,,대구광역시 수성구,2024-07-15,3460000,대구광역시 수성구
스카이약품,일반종합도매,대구광역시 수성구 무학로11길 42-18,,35.8309531387,128.6136706029,영업,Y,N,053-767-7582,대구광역시 수성구,2024-07-15,3460000,대구광역시 수성구
주식회사 송빈팜,일반종합도매,대구광역시 수성구 용학로42길 9,,35.820796844,128.6318629963,영업,N,N,053-782-8881,대구광역시 수성구,2024-07-15,3460000,대구광역시 수성구
시현메디팜,일반종합도매,대구광역시 수성구 범어천로 54,,35.8516520029,128.6239466905,영업,N,N,,대구광역시 수성구,2024-07-15,3460000,대구광역시 수성구
백균약품,일반종합도매,대구광역시 수성구 알파시티1로4길 8,,35.8412840131,128.6882734654,영업,N,N,053-793-2580,대구광역시 수성구,2024-07-15,3460000,대구광역시 수성구
(주)동인약품,일반종합도매,대구광역시 수성구 고모로26길 9,,35.85282725,128.6851735,영업,N,N,053-000-0000,대구광역시 수성구,2024-07-15,3460000,대구광역시 수성구
다원약품,일반종합도매,대구광역시 수성구 달구벌대로 2319-8,,35.8601473509,128.6166433029,영업,Y,N,053-745-5701,대구광역시 수성구,2024-07-15,3460000,대구광역시 수성구
유마힐메디,일반종합도매,대구광역시 수성구 국채보상로 985,,35.8667265927,128.6383094625,영업,N,N,,대구광역시 수성구,2024-07-15,3460000,대구광역시 수성구
이오약품 주식회사,일반종합도매,대구광역시 수성구 무열로 35,,35.8619920342,128.6478009319,영업,N,Y,053-710-9004,대구광역시 수성구,2024-07-15,3460000,대구광역시 수성구
영팜,일반종합도매,대구광역시 수성구 희망로 199,,35.84669574,128.6206625,영업,N,N,053-766-6120,대구광역시 수성구,2024-07-15,3460000,대구광역시 수성구
주식회사 펩트론,일반종합도매,"대전광역시 유성구 전민로 71, 2층 204호 (전민동, 삼성푸른아파트)",대전광역시 유성구 전민동 460,36.39944083,127.3970945,영업,N,N,,대전광역시 유성구보건소 보건의약과,2024-07-12,3670000,대전광역시 유성구
나라약품,일반종합도매,"대전광역시 유성구 테크노3로 65, 한신에스메카 2층 209호 (관평동)",대전광역시 유성구 관평동 1359,36.42932105,127.390779,영업,N,N,,대전광역시 유성구보건소 보건의약과,2024-07-12,3670000,대전광역시 유성구
주식회사 파마로직,일반종합도매,"대전광역시 유성구 박산로140번길 201-7, 1층 (구암동)",대전광역시 유성구 구암동 222-9,36.34848594,127.3242953,영업,N,Y,,대전광역시 유성구보건소 보건의약과,2024-07-12,3670000,대전광역시 유성구
주식회사 리즈팜,일반종합도매,"대전광역시 유성구 송림로 56, 하나빌딩 지상5층 (하기동)",대전광역시 유성구 하기동 533-1,36.38687711,127.3239751,영업,N,Y,,대전광역시 유성구보건소 보건의약과,2024-07-12,3670000,대전광역시 유성구
열린도매한약,한약도매,"대전광역시 유성구 유성대로668번길 81, 2층 201,202호 (구암동, 유성타워)",대전광역시 유성구 구암동 596,36.35236504,127.334183,영업,N,N,,대전광역시 유성구보건소 보건의약과,2024-07-12,3670000,대전광역시 유성구
은광,일반종합도매,"대전광역시 유성구 죽동로297번길 43, 3층 302호 (죽동)",대전광역시 유성구 죽동 706-4,36.36912514,127.3389498,영업,N,N,,대전광역시 유성구보건소 보건의약과,2024-07-12,3670000,대전광역시 유성구
a4u메디칼,일반종합도매,"대전광역시 유성구 온천동로65번길 39, 1층 114호, 116호 (봉명동, 노블레스투)",대전광역시 유성구 봉명동 692-1,36.35693187,127.3506101,영업,N,N,,대전광역시 유성구보건소 보건의약과,2024-07-12,3670000,대전광역시 유성구
더베럴팜,일반종합도매,"대전광역시 유성구 진잠로 147, 2층 (교촌동)",대전광역시 유성구 교촌동 624-9,36.30371959,127.3177106,영업,N,Y,,대전광역시 유성구보건소 보건의약과,2024-07-12,3670000,대전광역시 유성구
예성팜,일반종합도매,"대전광역시 유성구 진잠로124번길 19, 1층 102호 (원내동)",대전광역시 유성구 원내동 71-10,36.30220283,127.3167106,영업,N,N,,대전광역시 유성구보건소 보건의약과,2024-07-12,3670000,대전광역시 유성구
서연양행,일반종합도매,"대전광역시 유성구 교촌로6번길 55, 지상1층 (교촌동)",대전광역시 유성구 교촌동 636-5,36.30231458,127.3147165,영업,N,N,,대전광역시 유성구보건소 보건의약과,2024-07-12,3670000,대전광역시 유성구
천지티엠에스㈜,일반종합도매,대전광역시 유성구 관용로 46 (관평동),대전광역시 유성구 관평동 542-17,36.41484771,127.381593,영업,N,Y,,대전광역시 유성구보건소 보건의약과,2024-07-12,3670000,대전광역시 유성구
메디죤,일반종합도매,"대전광역시 유성구 온천로 45, 유성 푸르지오 시티 알파동 15층 17호 (봉명동)",대전광역시 유성구 봉명동 536-8,36.35581805,127.3430064,영업,N,N,,대전광역시 유성구보건소 보건의약과,2024-07-12,3670000,대전광역시 유성구
플러스메디팜,일반종합도매,"대전광역시 유성구 원신흥로55번길 53-16, 1층 101호 (원신흥동)",대전광역시 유성구 원신흥동 497-12,36.34084932,127.3431875,영업,N,N,,대전광역시 유성구보건소 보건의약과,2024-07-12,3670000,대전광역시 유성구
케이알사이언스 주식회사,기타,"대전광역시 유성구 테크노중앙로 65, 208호 (관평동)",대전광역시 유성구 관평동 783,36.42603546,127.3928127,영업,N,N,,대전광역시 유성구보건소 보건의약과,2024-07-12,3670000,대전광역시 유성구
대일에너지,기타,대전광역시 유성구 유성대로720번길 96 (장대동),대전광역시 유성구 장대동 285,36.35725631,127.3373093,영업,N,N,,대전광역시 유성구보건소 보건의약과,2024-07-12,3670000,대전광역시 유성구
(주)휴비스트제약,일반종합도매,"대전광역시 유성구 구즉로57번길 8-12, 2층 (송강동)",대전광역시 유성구 송강동 25-9,36.43494504,127.3850365,영업,N,N,,대전광역시 유성구보건소 보건의약과,2024-07-12,3670000,대전광역시 유성구
주식회사 아모스팜,일반종합도매,"대전광역시 유성구 지족로148번길 39-15, 1층 109호 (지족동)",대전광역시 유성구 지족동 1048-3,36.3786021,127.3048099,영업,N,Y,,대전광역시 유성구보건소 보건의약과,2024-07-12,3670000,대전광역시 유성구
비에스팜,일반종합도매,"대전광역시 유성구 월드컵대로316번길 64, 3층 (상대동)",대전광역시 유성구 상대동 455-7,36.34657068,127.3347395,영업,N,Y,,대전광역시 유성구보건소 보건의약과,2024-07-12,3670000,대전광역시 유성구
약산약업사,한약도매,대구광역시 남구 대명서8길 23-2 (대명동),대구광역시 남구 대명동 1138-4,35.8360386,128.5571944,영업,Y,Y,053-652-3994,대구광역시 남구청,2024-07-24,3440000,대구광역시 남구
주식회사 태양메디,일반종합도매,대구광역시 수성구 동대구로29길 28,,35.84353437,128.623037,영업,Y,Y,053-000-0000,대구광역시 수성구,2024-07-15,3460000,대구광역시 수성구
주식회사 원화약품,일반종합도매,대구광역시 수성구 용학로50길 27,,35.81919456,128.6359563,영업,N,N,070-4065-6651,대구광역시 수성구,2024-07-15,3460000,대구광역시 수성구
세일약품,일반종합도매,대구광역시 수성구 들안로 142,,35.8426176,128.6171656,영업,N,N,053-000-0000,대구광역시 수성구,2024-07-15,3460000,대구광역시 수성구
제이케이통상,일반종합도매,대구광역시 수성구 희망로 140,,35.84663253,128.6141119,영업,N,N,053-763-3484,대구광역시 수성구,2024-07-15,3460000,대구광역시 수성구
빅팜주식회사,일반종합도매,대구광역시 수성구 달구벌대로568길 6,,35.84727865,128.668858,영업,Y,Y,053-795-8868,대구광역시 수성구,2024-07-15,3460000,대구광역시 수성구
초이스팜,일반종합도매,대구광역시 수성구 무학로11길 42-18,,35.83095314,128.6136706,영업,Y,Y,053-425-0018,대구광역시 수성구,2024-07-15,3460000,대구광역시 수성구
산들바이오팜,일반종합도매,대구광역시 수성구 시지로 24,,35.84051235,128.6923287,영업,Y,Y,053-763-6003,대구광역시 수성구,2024-07-15,3460000,대구광역시 수성구
메디백스,일반종합도매,대구광역시 수성구 지범로 163,,35.82256486,128.6379523,영업,Y,Y,053-784-9050,대구광역시 수성구,2024-07-15,3460000,대구광역시 수성구
천마약품,일반종합도매,대구광역시 수성구 달구벌대로641길 21,,35.8420681,128.7080603,영업,Y,Y,053-795-8020,대구광역시 수성구,2024-07-15,3460000,대구광역시 수성구
화원메디칼,일반종합도매,대구광역시 수성구 수성로 151,,35.83909666,128.6118408,영업,N,N,053-751-3707,대구광역시 수성구,2024-07-15,3460000,대구광역시 수성구
(주)케이덴탈,시약도매,대구광역시 수성구 청호로 253,,35.83994529,128.6392205,영업,N,N,053-710-9035,대구광역시 수성구,2024-07-15,3460000,대구광역시 수성구
리우교역,일반종합도매,대구광역시 수성구 수성로 290,,35.85143808,128.613527,영업,N,N,053-286-7778,대구광역시 수성구,2024-07-15,3460000,대구광역시 수성구
대원약업사,한약도매,대구광역시 수성구 상화로3길 46,,35.83656614,128.6084126,영업,Y,Y,053-766-9254,대구광역시 수성구,2024-07-15,3460000,대구광역시 수성구
누리의료생명,일반종합도매,대구광역시 수성구 청수로 28,,35.8405274,128.6110687,영업,Y,Y,070-7653-1417,대구광역시 수성구,2024-07-15,3460000,대구광역시 수성구
팜원,일반종합도매,대구광역시 수성구 고모로22길 12-10,,35.85095165,128.6875471,영업,N,N,053-710-0553,대구광역시 수성구,2024-07-15,3460000,대구광역시 수성구
제이에스팜,일반종합도매,대구광역시 수성구 수성로 298-1,,35.85210902,128.6136719,영업,Y,Y,053-742-7124,대구광역시 수성구,2024-07-15,3460000,대구광역시 수성구
보람팜,일반종합도매,대구광역시 수성구 동원로 20,,35.86070417,128.640279,영업,Y,Y,053-759-8859,대구광역시 수성구,2024-07-15,3460000,대구광역시 수성구
상록팜,일반종합도매,대구광역시 수성구 수성로 355,,35.85729583,128.6134426,영업,Y,Y,053-653-3838,대구광역시 수성구,2024-07-15,3460000,대구광역시 수성구
다정팜,일반종합도매,대구광역시 수성구 동대구로20길 91,,35.83851073,128.6292783,영업,Y,Y,053-765-9191,대구광역시 수성구,2024-07-15,3460000,대구광역시 수성구
수림약품,일반종합도매,대구광역시 수성구 희망로 199,,35.84669574,128.6206625,영업,N,N,053-766-6120,대구광역시 수성구,2024-07-15,3460000,대구광역시 수성구
랩앤팜,시약도매,대구광역시 수성구 국채보상로 988,,35.86616571,128.6382442,영업,N,N,053-219-5320,대구광역시 수성구,2024-07-15,3460000,대구광역시 수성구
대호약품,일반종합도매,대구광역시 수성구 화랑로 60,,35.87099409,128.6340179,영업,Y,Y,053-768-8901,대구광역시 수성구,2024-07-15,3460000,대구광역시 수성구
현대약업사,한약도매,대구광역시 수성구 들안로19길 58,,35.8371339,128.6156296,영업,Y,Y,053-763-9466,대구광역시 수성구,2024-07-15,3460000,대구광역시 수성구
금포나라약업사,한약도매,대구광역시 수성구 수성로25길 74,,35.83795507,128.6077734,영업,Y,Y,053-766-0776,대구광역시 수성구,2024-07-15,3460000,대구광역시 수성구
세종허브,한약도매,대구광역시 수성구 수성로25길 56,,35.83780435,128.6087327,영업,Y,Y,053-768-6663,대구광역시 수성구,2024-07-15,3460000,대구광역시 수성구
(주)광산약품,일반종합도매,대구광역시 수성구 공경로 70,,35.87443077,128.6428217,영업,N,N,053-955-1150,대구광역시 수성구,2024-07-15,3460000,대구광역시 수성구
동국약품상사㈜,일반종합도매,대구광역시 수성구 청호로69길 49,,35.8486236084,128.6355988417,영업,Y,Y,053-751-0805,대구광역시 수성구,2024-07-15,3460000,대구광역시 수성구
경일약품㈜,일반종합도매,대구광역시 수성구 들안로 142,,35.8426176,128.6171656,영업,Y,Y,053-766-3400,대구광역시 수성구,2024-07-15,3460000,대구광역시 수성구
경안약품,일반종합도매,대구광역시 수성구 무열로 65,,35.86435609,128.6491193,영업,Y,Y,053-755-7991,대구광역시 수성구,2024-07-15,3460000,대구광역시 수성구
백원당약업사,한약도매,"대구광역시 남구 봉덕로9길 28, 1층 (봉덕동)",대구광역시 남구 봉덕동 705-43,35.84618183,128.5956938,영업,Y,Y,053-426-0066,대구광역시 남구청,2024-07-24,3440000,대구광역시 남구
동방종합가스,의료용고압가스,"대구광역시 남구 명덕시장길 9, 1층 (대명동)",대구광역시 남구 대명동 326-3,35.8443258,128.5846366,영업,Y,Y,053-623-0302,대구광역시 남구청,2024-07-24,3440000,대구광역시 남구
주식회사 지산팜텍,원료의약품도매,경기도 수원시 장안구 만석로209번길 13,경기도 수원시 장안구 송죽동 442-1,37.30524887,127.0005084,영업,N,N,031-248-5528,경기도 수원시 장안구보건소,2024-07-04,3740000,경기도 수원시
(주)메디플랜,일반종합도매,경기도 수원시 장안구 월드컵로 436,경기도 수원시 장안구 연무동 250-29,37.2941526,127.0248907,영업,Y,Y,031-248-9056,경기도 수원시 장안구보건소,2024-07-04,3740000,경기도 수원시
(주)에스이인터내셔널,일반종합도매,경기도 수원시 장안구 영화로 8,경기도 수원시 장안구 영화동 436-23,37.28800777,127.0105951,영업,N,N,031-308-0033,경기도 수원시 장안구보건소,2024-07-04,3740000,경기도 수원시
(주)에스엘바이오,일반종합도매,"서울특별시 강남구 강남대로 484, HK빌딩 지하1층 L106호 (논현동)",,37.50562487,127.024374,영업,Y,Y,,서울특별시 강남구청,2024-06-17,3220000,서울특별시 강남구
(주)지맥스파마켐,원료의약품도매,"서울특별시 강남구 도곡로 126, 오복빌딩 4층 401호 (도곡동)",,37.49007152,127.0341739,영업,Y,Y,,서울특별시 강남구청,2024-06-17,3220000,서울특별시 강남구
주식회사 서울리거,일반종합도매,"서울특별시 강남구 논현로133길 9, 거야빌딩 (논현동)",,37.5149132,127.0292902,영업,Y,Y,,서울특별시 강남구청,2024-06-17,3220000,서울특별시 강남구
(주)동주팜,일반종합도매,"서울특별시 강남구 논현로106길 54, 지엔에스 601호 (역삼동)",,37.50714048,127.0387529,영업,Y,Y,,서울특별시 강남구청,2024-06-17,3220000,서울특별시 강남구
(주)바이오이노티스,원료의약품도매,"서울특별시 강남구 봉은사로 135, 6층 (논현동, 현대약품빌딩)",,37.50628246,127.0293523,영업,Y,Y,,서울특별시 강남구청,2024-06-17,3220000,서울특별시 강남구
(주)에이엠에이치씨,일반종합도매,"서울특별시 강남구 언주로 709, 8층 (논현동, 송암빌딩)",,37.51679179,127.0349277,영업,Y,Y,,서울특별시 강남구청,2024-06-17,3220000,서울특별시 강남구
갈더마코리아(주),일반종합도매,"서울특별시 강남구 테헤란로114길 38, 동일타워 7층 (대치동)",,37.50712432,127.066993,영업,Y,Y,,서울특별시 강남구청,2024-06-17,3220000,서울특별시 강남구
주식회사 브이엠코리아,일반종합도매,"서울특별시 강남구 도산대로30길 13-13, 101호 (논현동)",,37.5193364,127.0307297,영업,Y,Y,,서울특별시 강남구청,2024-06-17,3220000,서울특별시 강남구
신원덴탈(주),일반종합도매,"서울특별시 강남구 테헤란로51길 22, 3층 (역삼동, 신원빌딩)",,37.505336,127.0461289,영업,Y,Y,,서울특별시 강남구청,2024-06-17,3220000,서울특별시 강남구
주식회사 더원팜텍,원료의약품도매,"서울특별시 강남구 논현로 42, 글로리빌딩 4층 (개포동)",,37.47457612,127.0481995,영업,Y,Y,,서울특별시 강남구청,2024-06-17,3220000,서울특별시 강남구
(주)휴민오투메드,원료의약품도매,"서울특별시 강남구 논현로 738, 3층 (논현동)",,37.5180052,127.0291641,영업,Y,Y,,서울특별시 강남구청,2024-06-17,3220000,서울특별시 강남구
(주)명상,한약도매,"서울특별시 강남구 도산대로16길 13-16, 함소아 빌딩 지하1층 B08호 (논현동)",,37.5174828,127.0260924,영업,Y,Y,,서울특별시 강남구청,2024-06-17,3220000,서울특별시 강남구
(주)와이에스생명과학,원료의약품도매,"서울특별시 강남구 테헤란로52길 6, 테헤란로오피스빌딩 1408호 (역삼동)",,37.50320978,127.0471162,영업,Y,Y,,서울특별시 강남구청,2024-06-17,3220000,서울특별시 강남구
(주)아이오바이오,일반종합도매,"서울특별시 강남구 테헤란로4길 38, 태영빌딩 8층 801호 (역삼동)",,37.49601505,127.0304104,영업,Y,Y,,서울특별시 강남구청,2024-06-17,3220000,서울특별시 강남구
신풍제약(주),일반종합도매,"서울특별시 강남구 역삼로 161 (역삼동, 신풍제약사옥 3층)",,37.49524958,127.0366567,영업,Y,Y,,서울특별시 강남구청,2024-06-17,3220000,서울특별시 강남구
한국오츠카제약(주),일반종합도매,"서울특별시 강남구 역삼로 226, 7층 (역삼동)",,37.49674355,127.0415253,영업,Y,Y,,서울특별시 강남구청,2024-06-17,3220000,서울특별시 강남구
(주)맥스메디팜,일반종합도매,"서울특별시 강남구 논현로102길 11, 2층 (역삼동)",,37.50512733,127.0360146,영업,Y,Y,,서울특별시 강남구청,2024-06-17,3220000,서울특별시 강남구
(주)제테마,일반종합도매,"서울특별시 강남구 봉은사로 429, 위즈빌딩 지하1층 104호 (삼성동)",,37.51143148,127.0468077,영업,Y,Y,,서울특별시 강남구청,2024-06-17,3220000,서울특별시 강남구
한국오노약품공업주식회사,일반종합도매,"서울특별시 강남구 테헤란로 134, 포스코P&S타워 19층 (역삼동)",,37.49937533,127.0338034,영업,Y,Y,,서울특별시 강남구청,2024-06-17,3220000,서울특별시 강남구
(주)아미노로직스,원료의약품도매,"서울특별시 강남구 역삼로 151, 301호 (역삼동)",,37.49492354,127.0356627,영업,Y,Y,,서울특별시 강남구청,2024-06-17,3220000,서울특별시 강남구
(주)한국파마,일반종합도매,"서울특별시 강남구 테헤란로4길 14, 미림타워 8층 (역삼동)",,37.49729594,127.029619,영업,Y,Y,,서울특별시 강남구청,2024-06-17,3220000,서울특별시 강남구
(주)엠씨약품,일반종합도매,"서울특별시 강남구 일원로 95, 신영프라자 404호 (일원동)",,37.48573633,127.0835242,영업,Y,Y,,서울특별시 강남구청,2024-06-17,3220000,서울특별시 강남구
(주)한국파비스제약,일반종합도매,"서울특별시 강남구 논현로28길 41, 5층 (도곡동)",,37.48439413,127.0450553,영업,Y,Y,,서울특별시 강남구청,2024-06-17,3220000,서울특별시 강남구
(주)한독테바,일반종합도매,"서울특별시 강남구 테헤란로 132 (역삼동, 한독약품빌딩)",,37.49931928,127.0332056,영업,Y,Y,,서울특별시 강남구청,2024-06-17,3220000,서울특별시 강남구
(주)뉴메코,일반종합도매,"서울특별시 강남구 테헤란로 626, 메디톡스빌딩 1층 (대치동)",,37.50935825,127.0664069,영업,Y,Y,,서울특별시 강남구청,2024-06-17,3220000,서울특별시 강남구
(주)메트로코리아,일반종합도매,"서울특별시 강남구 언주로85길 25, 4층 (역삼동)",,37.50067591,127.0412624,영업,Y,Y,,서울특별시 강남구청,2024-06-17,3220000,서울특별시 강남구
영인약품,일반종합도매,"서울특별시 강남구 논현로16길 10, 2층 (개포동)",,37.47616481,127.0472397,영업,Y,Y,,서울특별시 강남구청,2024-06-17,3220000,서울특별시 강남구
한국애브비주식회사,일반종합도매,서울특별시 강남구 영동대로 421 (대치동),,37.50700127,127.0635321,영업,Y,Y,,서울특별시 강남구청,2024-06-17,3220000,서울특별시 강남구
한국산텐제약(주),일반종합도매,"서울특별시 강남구 테헤란로 203, 서울인터내셔널타워 15층 (역삼동)",,37.50159765,127.0377229,영업,Y,Y,,서울특별시 강남구청,2024-06-17,3220000,서울특별시 강남구
(주)메디칼시냅스,일반종합도매,"서울특별시 강남구 개포로 634, 3층 (일원동)",,37.49423348,127.0820839,영업,Y,Y,,서울특별시 강남구청,2024-06-17,3220000,서울특별시 강남구
미라셀주식회사,일반종합도매,"서울특별시 강남구 언주로 413 (역삼동, 태현빌딩 3층)",,37.49983245,127.0435986,영업,Y,Y,,서울특별시 강남구청,2024-06-17,3220000,서울특별시 강남구
아이앤비팜,일반종합도매,"서울특별시 강남구 학동로82길 6 (삼성동, 삼성리치빌 105호)",,37.51838423,127.0512147,영업,Y,Y,,서울특별시 강남구청,2024-06-17,3220000,서울특별시 강남구
(주)화성약품,일반종합도매,경기도 수원시 권선구 하탑로 42,경기도 수원시 권선구 탑동 863-3,37.26883488,126.9761967,영업,Y,Y,031-243-5200,경기도 수원시 권선구보건소,2024-07-04,3740000,경기도 수원시
크로스팜,일반종합도매,"대전광역시 중구 계룡로 922, 상가동 2층 202호 (문화동, 하우스토리2차)",,36.31969868,127.4148079,영업,N,N,042-252-0506,대전광역시 중구청,2023-07-10,3650000,대전광역시 중구
주식회사 우리들약품,일반종합도매,"대전광역시 중구 목중로 31-3, 2층 (목동)",,36.33643015,127.4101494,영업,N,N,,대전광역시 중구청,2023-07-10,3650000,대전광역시 중구
(주)비아다빈치 대전지점,일반종합도매,"대전광역시 중구 충무로12번길 26, 101호 (대사동)",,36.31709606,127.4189255,영업,N,N,,대전광역시 중구청,2023-07-10,3650000,대전광역시 중구
아이엠팜,일반종합도매,"대전광역시 중구 동서대로 1202, 2층 (태평동)",,36.3259934782,127.393443,폐업,N,N,042-719-7733,대전광역시 중구청,2023-07-10,3650000,대전광역시 중구
어썸,일반종합도매,대전광역시 중구 서문로43번길 60 (문화동),,36.31361378,127.4053653,폐업,N,N,,대전광역시 중구청,2023-07-10,3650000,대전광역시 중구
주식회사 금호약품,일반종합도매,"대전광역시 중구 보문산로333번길 33, 101호 (문화동)",,36.31323284,127.4121835,폐업,Y,Y,,대전광역시 중구청,2023-07-10,3650000,대전광역시 중구
시어스팜,일반종합도매,"대전광역시 중구 산서로 13, 2층 201호 (사정동)",,36.29619514,127.382718,영업,N,N,042-587-4228,대전광역시 중구청,2023-07-10,3650000,대전광역시 중구
(주)미래디엠에스,일반종합도매,"대전광역시 중구 돌다리로 14, 2층 (석교동)",,36.30836358,127.4418287,폐업,N,N,042-271-0541,대전광역시 중구청,2023-07-10,3650000,대전광역시 중구
에스씨코리아팜,일반종합도매,"대전광역시 중구 계룡로 922, 1층 105호 (문화동, 하우스토리2차)",,36.31969868,127.4148079,영업,N,N,,대전광역시 중구청,2023-07-10,3650000,대전광역시 중구
다온메디케어,일반종합도매,"대전광역시 중구 대종로549번길 37, 3층 302호 (선화동)",,36.33082378,127.4211184,폐업,N,N,,대전광역시 중구청,2023-07-10,3650000,대전광역시 중구
(주)미소팜,일반종합도매,"대전광역시 중구 봉소루로 37, 3층 302호 (석교동)",,36.30871475,127.4417594,폐업,N,N,042-271-4578,대전광역시 중구청,2023-07-10,3650000,대전광역시 중구
주식회사 대선팜,일반종합도매,"대전광역시 중구 목중로 31-3, 2층 (목동)",,36.33643015,127.4101494,폐업,N,N,,대전광역시 중구청,2023-07-10,3650000,대전광역시 중구
생명건재도매한약,한약도매,"대전광역시 중구 안영로 69, 1층 (사정동)",,36.29484813,127.3819158,영업,N,N,042-583-5990,대전광역시 중구청,2023-07-10,3650000,대전광역시 중구
선유팜,일반종합도매,"대전광역시 중구 봉소루로 37, 3층 307호 (석교동)",,36.30871475,127.4417594,폐업,N,N,042-285-0719,대전광역시 중구청,2023-07-10,3650000,대전광역시 중구
(주)중앙약품,일반종합도매,광주광역시 서구 원마륵1길 19 (마륵동),광주광역시 서구 마륵동 178-2,35.145230494,126.8358172485,영업,Y,Y,062-382-3377,광주광역시 서구 보건소,2024-07-05,3600000,광주광역시 서구
보민당한약도매,한약도매,"광주광역시 서구 군분2로5번길 6-1 (화정동,(일층))",광주광역시 서구 화정동 776-48,35.1534419541,126.8803594715,영업,Y,Y,062-365-5445,광주광역시 서구 보건소,2024-07-05,3600000,광주광역시 서구
(주)호남지오영,일반종합도매,"광주광역시 서구 덕흥1길 29, B동 2층 (덕흥동)",광주광역시 서구 덕흥동 22-4,35.165095628,126.8380199225,영업,Y,Y,062-383-6070,광주광역시 서구 보건소,2024-07-05,3600000,광주광역시 서구
명신당한약도매,한약도매,"광주광역시 서구 화운로 116, 1층 (화정동)",광주광역시 서구 화정동 766-39,35.1497794244,126.8788749549,영업,Y,Y,062-524-4545,광주광역시 서구 보건소,2024-07-05,3600000,광주광역시 서구
순천당한약도매상,한약도매,광주광역시 서구 화정로253번길 36 (농성동),광주광역시 서구 농성동 655-24,35.1501120644,126.8822047515,영업,Y,Y,062-367-2228,광주광역시 서구 보건소,2024-07-05,3600000,광주광역시 서구
운천원한약도매상,한약도매,광주광역시 서구 상무대로868번길 18 (쌍촌동),광주광역시 서구 쌍촌동 976-51,35.1486138535,126.8573258958,영업,Y,Y,062-371-5599,광주광역시 서구 보건소,2024-07-05,3600000,광주광역시 서구
영창당한약도매상,한약도매,광주광역시 서구 월산로169번길 3-1 (농성동),광주광역시 서구 농성동 621-28,35.1525369402,126.8945737173,영업,Y,Y,062-365-3020,광주광역시 서구 보건소,2024-07-05,3600000,광주광역시 서구
장수당한약도매상,한약도매,광주광역시 서구 천변좌로262번길 17 (양동),광주광역시 서구 양동 5-11,35.1517744135,126.9031327088,영업,Y,Y,062-362-0270,광주광역시 서구 보건소,2024-07-05,3600000,광주광역시 서구
삼대한약도매상,한약도매,광주광역시 서구 월드컵4강로158번길 15-5 (쌍촌동),광주광역시 서구 쌍촌동 1001-67,35.1505650338,126.8717636618,영업,Y,Y,062-373-5225,광주광역시 서구 보건소,2024-07-05,3600000,광주광역시 서구
삼성당한약도매상,한약도매,광주광역시 서구 구성로 129 (양동),광주광역시 서구 양동 142-3,35.1490483518,126.9090824486,영업,Y,Y,062-365-2611,광주광역시 서구 보건소,2024-07-05,3600000,광주광역시 서구
(주)이노트로닉,일반종합도매,"서울특별시 강남구 언주로114길 15-5, 지하1층 (논현동, 리엔킴빌딩)",,37.51046396,127.0386326,영업,Y,Y,,서울특별시 강남구청,2024-06-17,3220000,서울특별시 강남구
동국생명과학(주),일반종합도매,"서울특별시 강남구 테헤란로108길 7, 동국빌딩 4,5,6층 (대치동)",,37.50899173,127.0660664,영업,Y,Y,,서울특별시 강남구청,2024-06-17,3220000,서울특별시 강남구
(주)제이비피코리아,일반종합도매,"서울특별시 강남구 개포로 619, 6층 (개포동, 서울강남우체국)",,37.49358351,127.0780732,영업,Y,Y,,서울특별시 강남구청,2024-06-17,3220000,서울특별시 강남구
(주)보리메디칼,일반종합도매,"서울특별시 강남구 논현로 6, 4층 (개포동)",,37.47214711,127.0507467,영업,Y,Y,,서울특별시 강남구청,2024-06-17,3220000,서울특별시 강남구
에스아이메디칼,일반종합도매,"서울특별시 강남구 논현로77길 9, 3층 301호 일부호 (역삼동)",,37.49679042,127.0377228,영업,Y,Y,,서울특별시 강남구청,2024-06-17,3220000,서울특별시 강남구
(주)지케이글로벌그룹,일반종합도매,"서울특별시 강남구 언주로 534, 3층 (역삼동, BJ타워)",,37.50598265,127.0415019,영업,Y,Y,,서울특별시 강남구청,2024-06-17,3220000,서울특별시 강남구
(주)지오메드팜,일반종합도매,"서울특별시 강남구 개포로 623, 대청타워 445호 (개포동)",,37.4943412,127.0796478,영업,Y,Y,,서울특별시 강남구청,2024-06-17,3220000,서울특별시 강남구
애쉬랜드스페셜티케미칼코리아(주),수입의약품도매,"서울특별시 강남구 봉은사로 116, 6층 (역삼동, 은성빌딩)",,37.50474911,127.0263888,영업,Y,Y,,서울특별시 강남구청,2024-06-17,3220000,서울특별시 강남구
유한회사 보현메딕스,일반종합도매,"대전광역시 중구 계백로 1606-1, 2층 (유천동)",,36.31842873,127.3985911,영업,Y,Y,,대전광역시 중구청,2023-07-10,3650000,대전광역시 중구
바른메디컬,일반종합도매,"대전광역시 중구 봉소루로 37, 306호 (석교동)",,36.30871475,127.4417594,영업,N,N,,대전광역시 중구청,2023-07-10,3650000,대전광역시 중구
주식회사 제이팜,일반종합도매,"대전광역시 중구 대종로 159, 근원빌딩 201호 (호동)",,36.30578811,127.4481272,영업,N,N,042-242-5537,대전광역시 중구청,2023-07-10,3650000,대전광역시 중구
드림팜,일반종합도매,"대전광역시 중구 봉소루로 37, 308호 (석교동)",,36.30871475,127.4417594,폐업,N,N,,대전광역시 중구청,2023-07-10,3650000,대전광역시 중구
마킹팜,일반종합도매,"대전광역시 중구 성산로13번길 26, 1층 (안영동)",,36.29027998,127.3786676,영업,N,N,,대전광역시 중구청,2023-07-10,3650000,대전광역시 중구
라온메디팜,일반종합도매,"대전광역시 중구 중교로 30, 승촌빌딩 2층 (대흥동)",,36.32490383,127.423256,영업,Y,Y,,대전광역시 중구청,2023-07-10,3650000,대전광역시 중구
주식회사 에스엠약품,일반종합도매,"대전광역시 중구 중앙로16번길 17, 2층 (문화동)",,36.32198664,127.4145569,영업,Y,Y,042-242-6701,대전광역시 중구청,2023-07-10,3650000,대전광역시 중구
정약품,일반종합도매,"대전광역시 중구 봉소루로 37, 305호 (석교동)",,36.30871475,127.4417594,영업,N,N,,대전광역시 중구청,2023-07-10,3650000,대전광역시 중구
(주) 석교약품,일반종합도매,"대전광역시 중구 봉소루로 37, 302호 (석교동)",,36.30871475,127.4417594,폐업,N,N,,대전광역시 중구청,2023-07-10,3650000,대전광역시 중구
(주)아이엔지팜,일반종합도매,"대전광역시 중구 문화로 279, 3층 (대사동)",,36.31816921,127.4153539,폐업,Y,Y,,대전광역시 중구청,2023-07-10,3650000,대전광역시 중구
더마원(주),일반종합도매,"대전광역시 중구 대종로593번길 14, 402호 (선화동, 세진빌딩)",,36.3344565,127.4175382,폐업,N,N,070-7521-3916,대전광역시 중구청,2023-07-10,3650000,대전광역시 중구
남북의료기상사가톨릭대학교대전성모병원점,기타,"대전광역시 중구 대흥로 64, 지하1층 (대흥동, 성모병원)",,36.32199612,127.4202146,폐업,Y,Y,042-482-9935,대전광역시 중구청,2023-07-10,3650000,대전광역시 중구
주식회사 에스에이치팜,일반종합도매,"대전광역시 중구 문화로 279, 2층 (대사동)",,36.31816921,127.4153539,폐업,Y,Y,042-226-3501,대전광역시 중구청,2023-07-10,3650000,대전광역시 중구
(주)제이디팜,일반종합도매,대전광역시 중구 대종로 159 (호동),,36.30578811,127.4481272,폐업,N,N,,대전광역시 중구청,2023-07-10,3650000,대전광역시 중구
넬슨팜,일반종합도매,"대전광역시 중구 봉소루로 37, 304호 (석교동)",,36.30871475,127.4417594,영업,N,N,042-283-6007,대전광역시 중구청,2023-07-10,3650000,대전광역시 중구
하림허브,한약도매,"대전광역시 중구 유천로33번길 106, 2층 (유천동)",,36.31448772,127.3927303,영업,Y,Y,,대전광역시 중구청,2023-07-10,3650000,대전광역시 중구
일강약품(주),일반종합도매,"대전광역시 중구 대둔산로 206, 2층 (안영동, 근영빌딩)",,36.28837763,127.3802746,폐업,Y,Y,042-535-9563,대전광역시 중구청,2023-07-10,3650000,대전광역시 중구
주식회사 메디칼유,일반종합도매,대전광역시 중구 대종로549번길 34 (선화동),,36.3307675,127.4206621,폐업,N,N,,대전광역시 중구청,2023-07-10,3650000,대전광역시 중구
가오약품,일반종합도매,"대전광역시 중구 봉소루로 37, 4층 (석교동)",,36.30871475,127.4417594,영업,Y,Y,,대전광역시 중구청,2023-07-10,3650000,대전광역시 중구
한이원,한약도매,대전광역시 중구 대종로 593-14 (선화동),,36.3344565,127.4175382,폐업,Y,Y,,대전광역시 중구청,2023-07-10,3650000,대전광역시 중구
동아에스티(주)대전지점,일반종합도매,대전광역시 중구 어덕마을로 18 (용두동),,36.3330926,127.4022882,영업,N,N,,대전광역시 중구청,2023-07-10,3650000,대전광역시 중구
동아제약(주)중부지점,일반종합도매,대전광역시 중구 어덕마을로 18 (용두동),,36.3330926,127.4022882,영업,Y,Y,,대전광역시 중구청,2023-07-10,3650000,대전광역시 중구
혜남건재도매한약,한약도매,대전광역시 중구 대종로402번길 3 (대흥동),,36.32120685,127.4304109,영업,Y,Y,,대전광역시 중구청,2023-07-10,3650000,대전광역시 중구
동산약품주식회사,일반종합도매,대전광역시 중구 동서대로1456번길 7-14 (선화동),,36.33713448,127.4177968,폐업,Y,Y,,대전광역시 중구청,2023-07-10,3650000,대전광역시 중구
비에스메디칼,일반종합도매,대전광역시 중구 대종로333번길 15 (부사동),,36.31504434,127.4327497,폐업,Y,Y,,대전광역시 중구청,2023-07-10,3650000,대전광역시 중구
주식회사 휴메디팜,일반종합도매,"대전광역시 중구 계룡로955번길 63, 4층 (대사동)",,36.32119219,127.417982,영업,Y,Y,,대전광역시 중구청,2023-07-10,3650000,대전광역시 중구
디에이치팜,일반종합도매,대전광역시 중구 유천로 57-21 (유천동),,36.31663144,127.3978365,폐업,Y,Y,,대전광역시 중구청,2023-07-10,3650000,대전광역시 중구
대영약품,일반종합도매,"대전광역시 중구 대종로584번길 55, 2층 (선화동)",,36.3361292213,127.4210176108,폐업,Y,Y,,대전광역시 중구청,2023-07-10,3650000,대전광역시 중구
그린허브한약건재,한약도매,"대전광역시 중구 동서대로1466번길 72 (선화동, 1층 창고, 2층 영업소)",,36.33529055,127.420406,영업,Y,Y,042-585-2509,대전광역시 중구청,2023-07-10,3650000,대전광역시 중구
주식회사 바이팜,일반종합도매,"대전광역시 중구 계백로1566번길 80, 1층 (유천동)",,36.3140223,127.3950880645,폐업,Y,Y,,대전광역시 중구청,2023-07-10,3650000,대전광역시 중구
수왕당건재한약,한약도매,"대전광역시 중구 계룡로 785 (용두동,1층)",,36.3293462446,127.4045799255,영업,Y,Y,,대전광역시 중구청,2023-07-10,3650000,대전광역시 중구
성보건재도매한약,한약도매,대전광역시 중구 문화로 120 (문화동),,36.31249102,127.3989039,폐업,N,N,,대전광역시 중구청,2023-07-10,3650000,대전광역시 중구
비엔약품(주),일반종합도매,"대전광역시 중구 계백로1685번길 41, 2층 (오류동)",,36.3224983101,127.4054762,영업,Y,Y,,대전광역시 중구청,2023-07-10,3650000,대전광역시 중구
(주)대전성모약품,일반종합도매,"대전광역시 중구 대흥로66번길 25, 2층 (대흥동)",,36.32280252,127.4211044006,영업,Y,Y,042-257-0097,대전광역시 중구청,2023-07-10,3650000,대전광역시 중구
아산팜,일반종합도매,,대전광역시 중구 오류동 171-29,36.3224983101,127.4054765305,폐업,N,N,,대전광역시 중구청,2023-07-10,3650000,대전광역시 중구
주식회사 리뉴팜,일반종합도매,대전광역시 중구 보문산로 137 (산성동),,36.30555194,127.3954384,영업,Y,Y,042-221-2570,대전광역시 중구청,2023-07-10,3650000,대전광역시 중구
제일한방약품,일반종합도매,"대전광역시 중구 유천로 92, 2층 (유천동)",,36.32075432,127.3968693,영업,Y,Y,,대전광역시 중구청,2023-07-10,3650000,대전광역시 중구
원메디칼,시약도매,대전광역시 중구 대종로 148 (호동),,36.30522622,127.4494116,폐업,Y,Y,,대전광역시 중구청,2023-07-10,3650000,대전광역시 중구
비오스팜(주),일반종합도매,대전광역시 중구 오류로 60 (오류동),,36.3257635,127.403714,영업,Y,Y,,대전광역시 중구청,2023-07-10,3650000,대전광역시 중구
대화약품(주),일반종합도매,대전광역시 중구 대종로 65 (옥계동),,36.29886699,127.4541547,폐업,Y,Y,,대전광역시 중구청,2023-07-10,3650000,대전광역시 중구
대흥약품(주),일반종합도매,대전광역시 중구 계백로 1592 (유천동),,36.31801613,127.3971911,폐업,Y,Y,042-587-5522,대전광역시 중구청,2023-07-10,3650000,대전광역시 중구
얼약품주식회사,일반종합도매,대전광역시 중구 대둔산로 419-4 (산성동),,36.30713931,127.3867964,폐업,Y,Y,,대전광역시 중구청,2023-07-10,3650000,대전광역시 중구
영신메디칼,일반종합도매,대전광역시 중구 보문산로 406 (대사동),,36.31763242,127.4180195,폐업,Y,Y,,대전광역시 중구청,2023-07-10,3650000,대전광역시 중구
본초제일한방약품,한약도매,대전광역시 중구 동서대로1456번길 7-14 (선화동),,36.33713448,127.4177968,폐업,Y,Y,,대전광역시 중구청,2023-07-10,3650000,대전광역시 중구
(주)우리바이오텍,시약도매,대전광역시 중구 목동로 48-1 (목동),,36.33515426,127.4072851,폐업,Y,Y,,대전광역시 중구청,2023-07-10,3650000,대전광역시 중구
조은건재도매한약,한약도매,대전광역시 중구 보문산공원로530번길 12 (대사동),,36.31447504,127.4248694,영업,Y,Y,,대전광역시 중구청,2023-07-10,3650000,대전광역시 중구
송림메디칼주식회사,수입의약품도매,"대전광역시 유성구 유성대로783번길 38, 107동 1502호 (장대동,월드컵패밀리타운)",,36.3645252571,127.3359079972,폐업,Y,Y,,대전광역시 중구청,2023-07-10,3650000,대전광역시 중구
(주)아큐텍파마,일반종합도매,"대전광역시 중구 대종로529번길 43, 4층 (선화동)",,36.32975084,127.4210261,폐업,Y,Y,,대전광역시 중구청,2023-07-10,3650000,대전광역시 중구
(주)팜스온,일반종합도매,"대전광역시 중구 계백로 1606-1, 3층 (유천동)",,36.31842873,127.3985911,폐업,Y,Y,,대전광역시 중구청,2023-07-10,3650000,대전광역시 중구
킴스한방약품,일반종합도매,"대전광역시 중구 평촌로 108, 4층 (유천동)",,36.32258425,127.3987375,영업,Y,Y,,대전광역시 중구청,2023-07-10,3650000,대전광역시 중구
이노랩(주),시약도매,대전광역시 중구 안영로 31 (안영동),,36.29218536,127.3793873,폐업,Y,Y,,대전광역시 중구청,2023-07-10,3650000,대전광역시 중구
영광건재도매한약,한약도매,대전광역시 중구 대종로296번길 40 (문창동),,36.31353576,127.4377496,폐업,Y,Y,,대전광역시 중구청,2023-07-10,3650000,대전광역시 중구
(주)미강메디텍,일반종합도매,,대전광역시 중구 산성동 145-26,36.31095252,127.3887377,폐업,Y,Y,,대전광역시 중구청,2023-07-10,3650000,대전광역시 중구
태성약품(주),일반종합도매,"대전광역시 중구 계백로1685번길 41, 4층 (오류동)",,36.3224983101,127.4054762,영업,Y,Y,,대전광역시 중구청,2023-07-10,3650000,대전광역시 중구
(주)정성약품,일반종합도매,대전광역시 중구 계룡로 775 (용두동),,36.32997309,127.4038602,폐업,Y,Y,,대전광역시 중구청,2023-07-10,3650000,대전광역시 중구
경성약품(주),일반종합도매,대전광역시 중구 계룡로 775 (용두동),,36.32997309,127.4038602,폐업,Y,Y,,대전광역시 중구청,2023-07-10,3650000,대전광역시 중구
우신팜,일반종합도매,,대전광역시 중구 중촌동 16-11,36.33691971,127.4107361,폐업,N,N,,대전광역시 중구청,2023-07-10,3650000,대전광역시 중구
삼현교역메디칼,시약도매,대전광역시 중구 성산로19번길 15 (안영동),,36.29054174,127.3787435,폐업,Y,Y,,대전광역시 중구청,2023-07-10,3650000,대전광역시 중구
비엠에스,시약도매,대전광역시 중구 계룡로 786 (오류동),,36.32889295,127.4041357,폐업,Y,Y,,대전광역시 중구청,2023-07-10,3650000,대전광역시 중구
명신약품(주),일반종합도매,대전광역시 중구 대종로402번길 19 (대흥동),,36.32154491,127.4313774,영업,Y,Y,,대전광역시 중구청,2023-07-10,3650000,대전광역시 중구
유진약품주식회사,일반종합도매,"대전광역시 중구 당디로 71, 2층 (산성동)",,36.31126816,127.3923209,영업,Y,Y,042-582-8374,대전광역시 중구청,2023-07-10,3650000,대전광역시 중구
세창당건재도매한약,한약도매,대전광역시 중구 선화서로 80-1 (선화동),,36.33073061,127.4167751,영업,Y,Y,,대전광역시 중구청,2023-07-10,3650000,대전광역시 중구
덕인당건재도매한약,한약도매,대전광역시 중구 수침로111번길 9 (태평동),,36.32904319,127.3981311,영업,Y,Y,,대전광역시 중구청,2023-07-10,3650000,대전광역시 중구
(주)태성메디칼,수입의약품도매,"대전광역시 중구 계룡로920번안길 10, 4층 (대사동, 중앙빌딩)",,36.31867204,127.4149715,영업,N,N,,대전광역시 중구청,2023-07-10,3650000,대전광역시 중구
동우당건재도매한약,한약도매,대전광역시 중구 송리로 42 (문화동),,36.30943941,127.4014327,폐업,Y,Y,,대전광역시 중구청,2023-07-10,3650000,대전광역시 중구
원창당건재도매한약,한약도매,대전광역시 중구 목중로26번길 45 (중촌동),,36.3377403421,127.4126985528,폐업,Y,Y,,대전광역시 중구청,2023-07-10,3650000,대전광역시 중구
혜화건재도매약업사,한약도매,대전광역시 중구 대흥로 134 (대흥동),,36.32366081,127.4271632,폐업,Y,Y,,대전광역시 중구청,2023-07-10,3650000,대전광역시 중구
캐어플러스,시약도매,"대전광역시 중구 중앙로13번길 39, 4층 (용두동)",,36.32408569,127.4125365,폐업,Y,Y,042-528-0585,대전광역시 중구청,2023-07-10,3650000,대전광역시 중구
수왕당건재도매한약,한약도매,대전광역시 중구 오류로 20-1 (오류동),,36.32241799,127.4051538,폐업,Y,Y,,대전광역시 중구청,2023-07-10,3650000,대전광역시 중구
부성약품주식회사,일반종합도매,대전광역시 중구 동서대로1456번길 7-14 (선화동),,36.33713448,127.4177968,폐업,Y,Y,042-257-7100,대전광역시 중구청,2023-07-10,3650000,대전광역시 중구
중앙건재도매한약,한약도매,"대전광역시 중구 계백로 1587, 1층 (유천동)",,36.31837258,127.3963865,영업,Y,Y,,대전광역시 중구청,2023-07-10,3650000,대전광역시 중구
산초당건재도매한약,한약도매,대전광역시 중구 계백로 1624 (유천동),,36.31887898,127.4003139,폐업,Y,Y,,대전광역시 중구청,2023-07-10,3650000,대전광역시 중구
혜남건재도매한약,한약도매,대전광역시 중구 대종로402번길 3 (대흥동),,36.32120685,127.4304109,폐업,Y,Y,,대전광역시 중구청,2023-07-10,3650000,대전광역시 중구
삼일약품교역(주),시약도매,대전광역시 중구 대종로 651 (중촌동),,36.33842006,127.4134429,폐업,Y,Y,,대전광역시 중구청,2023-07-10,3650000,대전광역시 중구
금성건재도매한약,한약도매,대전광역시 중구 대종로 668 (중촌동),,36.33963223,127.4125203,영업,Y,Y,,대전광역시 중구청,2023-07-10,3650000,대전광역시 중구
제일건재도매한약,한약도매,대전광역시 중구 수침로 94-2 (태평동),,36.32789751,127.3997103,영업,Y,Y,,대전광역시 중구청,2023-07-10,3650000,대전광역시 중구
덕인건재도매한약,한약도매,대전광역시 중구 선화서로23번길 34 (선화동),,36.32584821,127.417268,폐업,Y,Y,,대전광역시 중구청,2023-07-10,3650000,대전광역시 중구
금남건재도매한약,한약도매,"대전광역시 중구 목중로 66-1, 2층 (중촌동)",,36.33888889,127.4079809,영업,Y,Y,,대전광역시 중구청,2023-07-10,3650000,대전광역시 중구
성화당건재도매한약,한약도매,대전광역시 중구 목중로26번길 51 (중촌동),,36.33776037,127.4130802,영업,Y,Y,,대전광역시 중구청,2023-07-10,3650000,대전광역시 중구
동의한약건재도매,한약도매,대전광역시 중구 문창로38번길 13 (문창동),,36.31717516,127.4354739,영업,Y,Y,,대전광역시 중구청,2023-07-10,3650000,대전광역시 중구
대광당건재도매한약,한약도매,대전광역시 중구 태평로44번길 26 (유천동),,36.32096693,127.3943507,폐업,Y,Y,,대전광역시 중구청,2023-07-10,3650000,대전광역시 중구
동춘당건재도매약업사,한약도매,"대전광역시 중구 목척6길 1 (은행동, 4통 1반)",,36.33116982,127.4256047,폐업,Y,Y,,대전광역시 중구청,2023-07-10,3650000,대전광역시 중구
주식회사동성메디칼,일반종합도매,대전광역시 중구 대전천서로 671 (중촌동),,36.3422255,127.4120442,폐업,Y,Y,042-254-5759,대전광역시 중구청,2023-07-10,3650000,대전광역시 중구
안전가스종합상사,기타,대전광역시 중구 동서대로1327번길 108 (용두동),,36.333135829,127.403073072,폐업,N,N,,대전광역시 중구청,2023-07-10,3650000,대전광역시 중구
제1산소(의료용산소판매업),일반종합도매,대전광역시 중구 대흥로 155 (대흥동),,36.32353938,127.4243909,폐업,Y,Y,,대전광역시 중구청,2023-07-10,3650000,대전광역시 중구
용전약품상사,일반종합도매,대전광역시 중구 계룡로920번안길 7 (대사동),,36.31844739,127.4151068,폐업,Y,Y,042-623-3282,대전광역시 중구청,2023-07-10,3650000,대전광역시 중구
(주)신신양행,일반종합도매,"대전광역시 중구 대종로 278, 2층 (문창동)",,36.3120753,127.4376598,영업,Y,Y,042-253-6151,대전광역시 중구청,2023-07-10,3650000,대전광역시 중구
백제약품(주)대전지점,일반종합도매,대전광역시 중구 보문로 235 (대흥동),,36.32368996,127.4219729,영업,Y,Y,042-255-5501,대전광역시 중구청,2023-07-10,3650000,대전광역시 중구
동아제약(주)대전지점,일반종합도매,대전광역시 중구 어덕마을로 18 (용두동),,36.3330926,127.4022882,폐업,Y,Y,,대전광역시 중구청,2023-07-10,3650000,대전광역시 중구
형제에너지,기타,강원특별자치도 원주시 문막읍 원문로 2477,강원특별자치도 원주시 문막읍 반계리 628-1,37.2818689052,127.7802130595,영업,Y,Y,,강원특별자치도 원주시 보건소,2023-07-12,4191000,강원특별자치도 원주시
(주)에이원약품,일반종합도매,강원특별자치도 원주시 문막읍 원문로 1799,강원특별자치도 원주시 문막읍 문막리 533-16,37.310991701,127.8204955751,영업,Y,N,,강원특별자치도 원주시 보건소,2023-07-12,4191000,강원특별자치도 원주시
주식회사 예로팜,일반종합도매,,강원도 원주시 무실동   1201-1,37.3298635394,127.9167552473,영업,Y,N,,강원특별자치도 원주시 보건소,2023-07-12,4191000,강원특별자치도 원주시
주식회사 제이제이팜,일반종합도매,,강원도 원주시 태장동   1948,37.3977925528,127.9550785887,영업,Y,N,,강원특별자치도 원주시 보건소,2023-07-12,4191000,강원특별자치도 원주시
(주)소소팜,일반종합도매,,강원도 원주시 태장동   1948,37.3977925528,127.9550785887,영업,Y,N,,강원특별자치도 원주시 보건소,2023-07-12,4191000,강원특별자치도 원주시
주식회사 승지팜,일반종합도매,"서울특별시 영등포구가마산로313, 4층(대림동)",,37.49846064,126.8943316,영업,Y,Y,,서울특별시 영등포구,2024-08-01,3180000,서울특별시 영등포구
㈜비에스팜코리아,일반종합도매,"서울특별시 영등포구국회대로34길3-1, 2층(당산동)",,37.5270865461,126.8976299224,영업,Y,Y,02-511-7185,서울특별시 영등포구,2024-08-01,3180000,서울특별시 영등포구
㈜프레제니우스메디칼케어코리아,일반종합도매,"서울특별시 영등포구 여의대로24, 14층(여의도동, 전국경제인연합회회관)",,37.52218032,126.9199166,영업,Y,Y,02-2146-8845,서울특별시 영등포구,2024-08-01,3180000,서울특별시 영등포구
대성파마㈜,일반종합도매,"서울특별시 영등포구가마산로336, 10층 102호(대림동)",,37.49908588,126.8968149,영업,Y,Y,,서울특별시 영등포구,2024-08-01,3180000,서울특별시 영등포구
금강헬스케어,일반종합도매,"대전광역시 동구 동부로 27, 301-1호 (판암동)",대전광역시 동구 판암동 522,36.31958365,127.4567215,영업,Y,N,,대전광역시 동구청,2024-08-01,3640000,대전광역시 동구
금강약품,일반종합도매,"대전광역시 동구 산내로 1288-8, 209호 (낭월동)",대전광역시 동구 낭월동 644,36.27838129,127.4697392,영업,Y,N,,대전광역시 동구청,2024-08-01,3640000,대전광역시 동구
코트엠씨,일반종합도매,"대전광역시 동구 물류로 4, 남대전NK리움힐타워 4층 406호 (구도동)",대전광역시 동구 구도동 346,36.27274707,127.4688257,영업,Y,N,,대전광역시 동구청,2024-08-01,3640000,대전광역시 동구
(주)월드팜코리아,일반종합도매,,강원도 원주시 태장동   1948,37.3977925528,127.9550785887,영업,Y,Y,,강원특별자치도 원주시 보건소,2023-07-12,4191000,강원특별자치도 원주시
에스지엘팜,일반종합도매,강원특별자치도 원주시 호저면 호저로 461,강원특별자치도 원주시 호저면 주산리 606-3,37.4134776164,127.9241925951,폐업,Y,N,,강원특별자치도 원주시 보건소,2023-07-12,4191000,강원특별자치도 원주시
이루다팜,일반종합도매,,강원도 원주시 무실동   1201-1,37.3298635394,127.9167552473,영업,Y,N,,강원특별자치도 원주시 보건소,2023-07-12,4191000,강원특별자치도 원주시
주식회사 나우리,일반종합도매,,강원도 원주시 무실동   1201-1,37.3298635394,127.9167552473,영업,Y,N,,강원특별자치도 원주시 보건소,2023-07-12,4191000,강원특별자치도 원주시
주식회사 세준약품,일반종합도매,강원특별자치도 원주시 판부면 오성마을길 43-10,강원특별자치도 원주시 판부면 서곡리 2015-7,37.3185415079,127.949975036,영업,Y,N,,강원특별자치도 원주시 보건소,2023-07-12,4191000,강원특별자치도 원주시
와이디메디칼,일반종합도매,강원특별자치도 원주시 서원대로 117,강원특별자치도 원주시 단계동 1114-4,37.3468418817,127.9262635973,영업,Y,N,,강원특별자치도 원주시 보건소,2023-07-12,4191000,강원특별자치도 원주시
라온약품,일반종합도매,강원특별자치도 원주시 양지로 80,강원특별자치도 원주시 반곡동 1903-2,37.3279856667,127.9861951891,영업,Y,N,,강원특별자치도 원주시 보건소,2023-07-12,4191000,강원특별자치도 원주시
(주)예일메디칼,일반종합도매,강원특별자치도 원주시 예술관길 13,강원특별자치도 원주시 명륜동 547,37.3336194841,127.9431711121,영업,Y,N,,강원특별자치도 원주시 보건소,2023-07-12,4191000,강원특별자치도 원주시
대성종합가스,기타,강원특별자치도 원주시 소초면 바우실길 11-1,강원특별자치도 원주시 소초면 수암리 761-4,37.3972225748,127.9895885969,영업,Y,Y,,강원특별자치도 원주시 보건소,2023-07-12,4191000,강원특별자치도 원주시
청솔팜,일반종합도매,강원특별자치도 원주시 늘품로 11,강원특별자치도 원주시 단구동 1569-3,37.3212772684,127.9493735224,폐업,Y,N,,강원특별자치도 원주시 보건소,2023-07-12,4191000,강원특별자치도 원주시
현대가스상사,기타,강원특별자치도 원주시 장수2로 38-6,강원특별자치도 원주시 태장동 1632,37.4019356064,127.9578999307,영업,Y,Y,,강원특별자치도 원주시 보건소,2023-07-12,4191000,강원특별자치도 원주시
하모니팜주식회사,일반종합도매,강원특별자치도 원주시 흥업면 남원로 111-21,강원특별자치도 원주시 흥업면 흥업리 727-2,37.3074583999,127.9189373136,영업,Y,Y,,강원특별자치도 원주시 보건소,2023-07-12,4191000,강원특별자치도 원주시
주식회사 플러스팜,일반종합도매,강원특별자치도 원주시 흥업면 남원로 52-5,강원특별자치도 원주시 흥업면 흥업리 1834-1,37.3006807526,127.91998327,영업,Y,N,,강원특별자치도 원주시 보건소,2023-07-12,4191000,강원특별자치도 원주시
회생약품,일반종합도매,강원특별자치도 원주시 이화4길 50-12,강원특별자치도 원주시 단계동 904-6,37.3410942723,127.9339706343,폐업,Y,N,,강원특별자치도 원주시 보건소,2023-07-12,4191000,강원특별자치도 원주시
(주)씨알팜,일반종합도매,강원특별자치도 원주시 서원대로 500,강원특별자치도 원주시 단구동 1608,37.3255973668,127.9570808098,영업,Y,Y,,강원특별자치도 원주시 보건소,2023-07-12,4191000,강원특별자치도 원주시
(주)누리약품,일반종합도매,강원특별자치도 원주시 신촌길 3-16,강원특별자치도 원주시 태장동 2149-11,37.3954766012,127.949971126,폐업,Y,Y,,강원특별자치도 원주시 보건소,2023-07-12,4191000,강원특별자치도 원주시
에스제이팜,일반종합도매,강원특별자치도 원주시 판부면 치악로 1008,강원특별자치도 원주시 판부면 금대리 1278-5,37.2837658496,127.9992257781,폐업,Y,Y,,강원특별자치도 원주시 보건소,2023-07-12,4191000,강원특별자치도 원주시
(주)에스에이치,일반종합도매,강원특별자치도 원주시 이화3길 2-10,강원특별자치도 원주시 단계동 931-14,37.3374720461,127.9351037302,영업,Y,N,,강원특별자치도 원주시 보건소,2023-07-12,4191000,강원특별자치도 원주시
유아약품,일반종합도매,강원특별자치도 원주시 소초면 범골길 45-5,강원특별자치도 원주시 소초면 흥양리 산 110-1,37.3760696195,127.9933944869,영업,Y,Y,,강원특별자치도 원주시 보건소,2023-07-12,4191000,강원특별자치도 원주시
간현가스,기타,강원특별자치도 원주시 지정면 간현로 102-9,강원특별자치도 원주시 지정면 간현리 654-1,37.3615683874,127.8422047589,영업,Y,Y,,강원특별자치도 원주시 보건소,2023-07-12,4191000,강원특별자치도 원주시
린나이종합가스,기타,강원특별자치도 원주시 문막읍 원문로 2142,강원특별자치도 원주시 문막읍 반계리 99-1,37.2991328439,127.7967084619,영업,Y,Y,,강원특별자치도 원주시 보건소,2023-07-12,4191000,강원특별자치도 원주시
제일가스텍,기타,강원특별자치도 원주시 호저면 평천1길 45,강원특별자치도 원주시 호저면 주산리 729-7,37.4240214,127.9217576,영업,Y,Y,,강원특별자치도 원주시 보건소,2023-07-12,4191000,강원특별자치도 원주시
세준약품,일반종합도매,강원특별자치도 원주시 판부면 오성마을길 43-10,강원특별자치도 원주시 판부면 서곡리 2015-7,37.3185415079,127.949975036,폐업,Y,N,,강원특별자치도 원주시 보건소,2023-07-12,4191000,강원특별자치도 원주시
(주)덕일,기타,강원특별자치도 원주시 지정면 보통로 380,강원특별자치도 원주시 지정면 보통리 252-6,37.3395324057,127.875255172,영업,Y,Y,,강원특별자치도 원주시 보건소,2023-07-12,4191000,강원특별자치도 원주시
아이온메디컬,일반종합도매,강원특별자치도 원주시 남산로9번길 16,강원특별자치도 원주시 명륜동 205-130,37.3407393631,127.9429099885,폐업,Y,N,,강원특별자치도 원주시 보건소,2023-07-12,4191000,강원특별자치도 원주시
강원명신팜,일반종합도매,강원특별자치도 원주시 판부면 치악로 1008,강원특별자치도 원주시 판부면 금대리 1278-5,37.2837658496,127.9992257781,폐업,Y,Y,,강원특별자치도 원주시 보건소,2023-07-12,4191000,강원특별자치도 원주시
주식회사 화성,일반종합도매,강원특별자치도 원주시 이화4길 36,강원특별자치도 원주시 단계동 919-11,37.3405826679,127.932762374,영업,Y,N,,강원특별자치도 원주시 보건소,2023-07-12,4191000,강원특별자치도 원주시
주원약품(주),일반종합도매,강원특별자치도 원주시 남원로 583,강원특별자치도 원주시 명륜동 244,37.335977331,127.9491727196,폐업,Y,Y,,강원특별자치도 원주시 보건소,2023-07-12,4191000,강원특별자치도 원주시
두올메드,일반종합도매,강원특별자치도 원주시 서원대로 491,강원특별자치도 원주시 단구동 702,37.3261298658,127.9576810201,폐업,Y,Y,,강원특별자치도 원주시 보건소,2023-07-12,4191000,강원특별자치도 원주시
(주)소망약품,일반종합도매,강원특별자치도 원주시 지니기길 99-12,강원특별자치도 원주시 무실동 721-8,37.320207659,127.9216057248,폐업,Y,Y,,강원특별자치도 원주시 보건소,2023-07-12,4191000,강원특별자치도 원주시
주식회사 이후,일반종합도매,강원특별자치도 원주시 행구로 267-25,강원특별자치도 원주시 행구동 1552-1,37.3451225241,127.9844628727,폐업,Y,Y,,강원특별자치도 원주시 보건소,2023-07-12,4191000,강원특별자치도 원주시
주식회사 북원약품,일반종합도매,강원특별자치도 원주시 현충로232번길 57,강원특별자치도 원주시 태장동 958-28,37.3715342586,127.955311016,영업,Y,Y,,강원특별자치도 원주시 보건소,2023-07-12,4191000,강원특별자치도 원주시
(주)지원약품,일반종합도매,,강원도 원주시 태장동   1948,37.3977925528,127.9550785887,폐업,Y,N,,강원특별자치도 원주시 보건소,2023-07-12,4191000,강원특별자치도 원주시
(주)지금,일반종합도매,강원특별자치도 원주시 치악고교길 45-2,강원특별자치도 원주시 관설동 1769-7,37.3157927355,127.9612539297,폐업,Y,N,,강원특별자치도 원주시 보건소,2023-07-12,4191000,강원특별자치도 원주시
동아에스티(주)원주지점,일반종합도매,강원특별자치도 원주시 행가리1길 42-1,강원특별자치도 원주시 무실동 1040,37.3205119843,127.9158195984,영업,Y,N,,강원특별자치도 원주시 보건소,2023-07-12,4191000,강원특별자치도 원주시
동아제약(주)동부지점,일반종합도매,강원특별자치도 원주시 행가리1길 42-1,강원특별자치도 원주시 무실동 1040,37.3205119843,127.9158195984,영업,Y,N,,강원특별자치도 원주시 보건소,2023-07-12,4191000,강원특별자치도 원주시
학교법인 경희학원 경희한약,한약도매,강원특별자치도 원주시 문막읍 문막공단길 99,강원특별자치도 원주시 문막읍 반계리 2236-3,37.2926061727,127.8047784093,영업,Y,Y,,강원특별자치도 원주시 보건소,2023-07-12,4191000,강원특별자치도 원주시
주식회사 지에프메디팜,일반종합도매,강원특별자치도 원주시 운곡로 48,강원특별자치도 원주시 행구동 1117-1,37.3471608244,127.9973076134,폐업,Y,Y,,강원특별자치도 원주시 보건소,2023-07-12,4191000,강원특별자치도 원주시
(주)우선약품,일반종합도매,강원특별자치도 원주시 남산로 180,강원특별자치도 원주시 학성동 1061-5,37.3520396977,127.9407676434,폐업,Y,Y,,강원특별자치도 원주시 보건소,2023-07-12,4191000,강원특별자치도 원주시
주식회사 가온약품,일반종합도매,강원특별자치도 원주시 신촌길 3-16,강원특별자치도 원주시 태장동 2149-11,37.3954766012,127.949971126,영업,Y,Y,,강원특별자치도 원주시 보건소,2023-07-12,4191000,강원특별자치도 원주시
(주)에스씨팜,일반종합도매,강원특별자치도 원주시 북원상가길 13,강원특별자치도 원주시 태장동 1379-23,37.3843786625,127.9488480791,영업,Y,N,,강원특별자치도 원주시 보건소,2023-07-12,4191000,강원특별자치도 원주시
중원메디팜,일반종합도매,강원특별자치도 원주시 판부면 남원로 212,강원특별자치도 원주시 판부면 서곡리 716-8,37.3106300534,127.9286858647,영업,Y,N,,강원특별자치도 원주시 보건소,2023-07-12,4191000,강원특별자치도 원주시
의림약업사,한약도매,강원특별자치도 원주시 상지대길 65,강원특별자치도 원주시 우산동 201-34,37.3698942716,127.9354966596,영업,Y,Y,,강원특별자치도 원주시 보건소,2023-07-12,4191000,강원특별자치도 원주시
(주)위너스팜,일반종합도매,강원특별자치도 원주시 행구로 39,강원특별자치도 원주시 개운동 394-2,37.3415586313,127.9601723508,영업,Y,Y,,강원특별자치도 원주시 보건소,2023-07-12,4191000,강원특별자치도 원주시
(주)일송메디칼,수입의약품도매,강원특별자치도 원주시 판부면 치악로 1095,강원특별자치도 원주시 판부면 금대리 985-6,37.2902614915,127.9937837913,영업,Y,Y,,강원특별자치도 원주시 보건소,2023-07-12,4191000,강원특별자치도 원주시
(주)제인팜,일반종합도매,,강원도 원주시 무실동   1201-1,37.3298635394,127.9167552473,영업,Y,Y,,강원특별자치도 원주시 보건소,2023-07-12,4191000,강원특별자치도 원주시
(주)정수약품,일반종합도매,강원특별자치도 원주시 우무개로 61,강원특별자치도 원주시 우산동 209-5,37.3651888466,127.9349132158,영업,Y,Y,,강원특별자치도 원주시 보건소,2023-07-12,4191000,강원특별자치도 원주시
정운가스,기타,강원특별자치도 원주시 소초면 바우실길 11,강원특별자치도 원주시 소초면 수암리 761-1,37.397065691,127.9895697074,영업,Y,Y,,강원특별자치도 원주시 보건소,2023-07-12,4191000,강원특별자치도 원주시
케이에스팜(주),일반종합도매,강원특별자치도 원주시 이화3길 40-2,강원특별자치도 원주시 단계동 925-13,37.3387043553,127.9323852664,폐업,Y,N,,강원특별자치도 원주시 보건소,2023-07-12,4191000,강원특별자치도 원주시
(주)이에스팜,일반종합도매,강원특별자치도 원주시 판부면 서곡길 329-1,강원특별자치도 원주시 판부면 서곡리 1204-1,37.2943296366,127.9427689762,영업,Y,N,,강원특별자치도 원주시 보건소,2023-07-12,4191000,강원특별자치도 원주시
동아제약(주)원주지점,일반종합도매,강원특별자치도 원주시 행가리1길 42-1,강원특별자치도 원주시 무실동 1040,37.3205119843,127.9158195984,폐업,Y,N,,강원특별자치도 원주시 보건소,2023-07-12,4191000,강원특별자치도 원주시
(주)성일팜,일반종합도매,강원특별자치도 원주시 행구로 267-25,강원특별자치도 원주시 행구동 1552-1,37.3451225241,127.9844628727,폐업,Y,Y,,강원특별자치도 원주시 보건소,2023-07-12,4191000,강원특별자치도 원주시
피앤아이(주),일반종합도매,강원특별자치도 원주시 우산초교길 9,강원특별자치도 원주시 우산동 90-6,37.3670367377,127.9394787806,폐업,Y,Y,,강원특별자치도 원주시 보건소,2023-07-12,4191000,강원특별자치도 원주시
(주)케이씨팜,일반종합도매,강원특별자치도 원주시 일산로 61,강원특별자치도 원주시 원동 33-1,37.3465957537,127.9500832715,영업,Y,Y,,강원특별자치도 원주시 보건소,2023-07-12,4191000,강원특별자치도 원주시
천수약업사,한약도매,강원특별자치도 원주시 소초면 신양선녀길 46-1,강원특별자치도 원주시 소초면 장양리 176-4,37.4145834782,127.9670739321,폐업,Y,Y,,강원특별자치도 원주시 보건소,2023-07-12,4191000,강원특별자치도 원주시
영생약업사,한약도매,강원특별자치도 원주시 개운5길 1,강원특별자치도 원주시 개운동 39,37.3411310597,127.9614873264,폐업,Y,Y,,강원특별자치도 원주시 보건소,2023-07-12,4191000,강원특별자치도 원주시
(주)기준약품,일반종합도매,강원특별자치도 원주시 송림길 34-35,강원특별자치도 원주시 개운동 445-9,37.3313372582,127.9506565256,폐업,Y,Y,,강원특별자치도 원주시 보건소,2023-07-12,4191000,강원특별자치도 원주시
(주)동원약품 원주지점,일반종합도매,강원특별자치도 원주시 판부면 용수골길 138,강원특별자치도 원주시 판부면 서곡리 1068-1,37.299453789,127.9367035432,영업,Y,Y,,강원특별자치도 원주시 보건소,2023-07-12,4191000,강원특별자치도 원주시
문막가스,기타,강원특별자치도 원주시 문막읍 원평길 97,강원특별자치도 원주시 문막읍 건등리 403-8,37.323669431,127.8192879997,영업,Y,Y,,강원특별자치도 원주시 보건소,2023-07-12,4191000,강원특별자치도 원주시
현대가스,기타,강원특별자치도 원주시 개봉길 34,강원특별자치도 원주시 개운동 382-6,37.3435235589,127.9558625632,영업,Y,Y,,강원특별자치도 원주시 보건소,2023-07-12,4191000,강원특별자치도 원주시
우일가스,기타,강원특별자치도 원주시 북원로 2630-9,강원특별자치도 원주시 태장동 1297-2,37.378181592,127.9469435751,영업,Y,Y,,강원특별자치도 원주시 보건소,2023-07-12,4191000,강원특별자치도 원주시
(주)드림팜,일반종합도매,강원특별자치도 원주시 시청로 33-1,강원특별자치도 원주시 무실동 1722-4,37.3401299059,127.9243958243,영업,Y,Y,,강원특별자치도 원주시 보건소,2023-07-12,4191000,강원특별자치도 원주시
백제약품(주)원주지점,일반종합도매,강원특별자치도 원주시 판부면 오성마을길 61,강원특별자치도 원주시 판부면 서곡리 2011-7,37.3195111898,127.9490063194,영업,Y,Y,,강원특별자치도 원주시 보건소,2023-07-12,4191000,강원특별자치도 원주시
동양약품(주),일반종합도매,강원특별자치도 원주시 평원초교길 2,강원특별자치도 원주시 단계동 815-1,37.3502782484,127.9294732529,영업,Y,Y,,강원특별자치도 원주시 보건소,2023-07-12,4191000,강원특별자치도 원주시
예일약품(주),일반종합도매,강원특별자치도 원주시 원문로 10,강원특별자치도 원주시 학성동 442-15,37.3560028507,127.9430830693,폐업,Y,Y,,강원특별자치도 원주시 보건소,2023-07-12,4191000,강원특별자치도 원주시
삼아제약(주),일반종합도매,강원특별자치도 원주시 문막읍 동화공단로 49,강원특별자치도 원주시 문막읍 동화리 1676,37.332445765,127.8459590569,영업,Y,Y,,강원특별자치도 원주시 보건소,2023-07-12,4191000,강원특별자치도 원주시
(주)선경메디칼,시약도매,강원특별자치도 원주시 이화4길 78-18,강원특별자치도 원주시 단계동 900-3,37.3416079685,127.9333837561,폐업,Y,Y,,강원특별자치도 원주시 보건소,2023-07-12,4191000,강원특별자치도 원주시
(주)제일약업,한약도매,강원특별자치도 원주시 평원안길 16,강원특별자치도 원주시 평원동 326-23,37.3493663015,127.9534110767,영업,Y,Y,,강원특별자치도 원주시 보건소,2023-07-12,4191000,강원특별자치도 원주시
서강약품(주),일반종합도매,강원특별자치도 원주시 단구로37번길 3,강원특별자치도 원주시 단계동 789-9,37.3452396375,127.9374039607,폐업,Y,Y,,강원특별자치도 원주시 보건소,2023-07-12,4191000,강원특별자치도 원주시
영진한약도매업사,한약도매,강원특별자치도 원주시 중앙로 164,강원특별자치도 원주시 중앙동 5-3,37.3522813044,127.9486807017,영업,Y,Y,,강원특별자치도 원주시 보건소,2023-07-12,4191000,강원특별자치도 원주시
원주약업사,한약도매,강원특별자치도 원주시 개봉교길 13,강원특별자치도 원주시 개운동 382-15,37.3435062446,127.9564440872,영업,Y,Y,,강원특별자치도 원주시 보건소,2023-07-12,4191000,강원특별자치도 원주시
경원산소(주),기타,강원특별자치도 원주시 우산공단길 149,강원특별자치도 원주시 우산동 522,37.3822378043,127.936905757,영업,Y,Y,,강원특별자치도 원주시 보건소,2023-07-12,4191000,강원특별자치도 원주시
천일약업사,한약도매,강원특별자치도 원주시 북원로2425번길 75,강원특별자치도 원주시 우산동 163-3,37.3638641918,127.9357464351,영업,Y,Y,,강원특별자치도 원주시 보건소,2023-07-12,4191000,강원특별자치도 원주시
일양약품(주)강원지점,일반종합도매,강원특별자치도 원주시 원일로 248,강원특별자치도 원주시 학성동 898-2,37.3577769845,127.943028629,폐업,Y,Y,,강원특별자치도 원주시 보건소,2023-07-12,4191000,강원특별자치도 원주시
지에스팜,일반종합도매,전라남도 곡성군 옥과면 리문4길 4,전라남도 곡성군 옥과면 옥과리 138-3,35.2754035,127.1346251,영업,Y,Y,061-362-6440,전라남도 곡성군청,2023-07-12,4860000,전라남도 곡성군
혜림원,한약도매,전라남도 곡성군 곡성읍 청계동로 369,전라남도 곡성군 곡성읍 신기리 1049-3,35.31227685,127.2670318,영업,Y,Y,,전라남도 곡성군청,2023-07-12,4860000,전라남도 곡성군
동부종합가스,기타(의료용 고압가스),충청남도 당진시 송악읍 틀모시로 362-4 (동부종합가스),,36.86837788,126.697565,영업,N,Y,,당진시보건소,2023-07-10,5680000,충청남도 당진시
(주)에어가스코리아,기타(의료용 고압가스),충청남도 당진시 면천면 원문봉길 115,,36.80760205,126.6907544,영업,N,Y,,당진시보건소,2023-07-10,5680000,충청남도 당진시
그린에어텍,기타(의료용 고압가스),충청남도 당진시 면천면 원문봉길 115,,36.80760205,126.6907544,영업,N,Y,,당진시보건소,2023-07-10,5680000,충청남도 당진시
SK에너지,기타(의료용 고압가스),충청남도 당진시 송악읍 순성로 822-16,,36.86351645,126.734451,영업,N,Y,,당진시보건소,2023-07-10,5680000,충청남도 당진시
중원산업가스(주),기타(의료용 고압가스),충청남도 당진시 역천로 39 (구룡동),,36.81970281,126.6018608,영업,N,Y,,당진시보건소,2023-07-10,5680000,충청남도 당진시
(주)비티비가스,기타,충청남도 당진시 합덕읍 덕평로 409,,36.79733436,126.7823232,영업,N,Y,,당진시보건소,2023-07-10,5680000,충청남도 당진시
유진산업가스(주),기타(의료용 고압가스),충청남도 당진시 송악읍 월곡로 240,,36.95794831,126.748973,영업,N,Y,,당진시보건소,2023-07-10,5680000,충청남도 당진시
(주)당진종합가스,기타(의료용 고압가스),"충청남도 당진시 원행정길 156-1 (채운동, 당진종합가스판매)",,36.88929537,126.6102902,영업,N,Y,,당진시보건소,2023-07-10,5680000,충청남도 당진시
한나가스,기타(의료용 고압가스),충청남도 당진시 순성면 갈뫼길 11-3,,36.87545188,126.671975,영업,N,Y,,당진시보건소,2023-07-10,5680000,충청남도 당진시
동아가스,기타(의료용 고압가스),충청남도 당진시 신평면 순성로 926,,36.86896443,126.7446453,영업,N,Y,,당진시보건소,2023-07-10,5680000,충청남도 당진시
당진산업가스(주),기타(의료용 고압가스),충청남도 당진시 송악읍 송악로 418 (당진산업가스),,36.92948433,126.7195914,영업,N,Y,,당진시보건소,2023-07-10,5680000,충청남도 당진시
우리가스,기타(의료용 고압가스),충청남도 당진시 송산면 당산1로 476 (우리가스),,36.93378891,126.6617696,영업,N,Y,,당진시보건소,2023-07-10,5680000,충청남도 당진시
도경한약도매,한약도매,충청남도 당진시 신평면 신평로 793,,36.88279773,126.7765808,영업,N,N,,당진시보건소,2023-07-10,5680000,충청남도 당진시
가나안한약건재약업사,한약도매,충청남도 당진시 시장중앙길 84 (읍내동),,36.88870685,126.6309725,영업,N,N,,당진시보건소,2023-07-10,5680000,충청남도 당진시
동성약업사,한약도매,충청남도 당진시 당진중앙2로 139-11 (읍내동),,36.89540248,126.631795,영업,N,N,,당진시보건소,2023-07-10,5680000,충청남도 당진시
서진산업가스,기타(의료용 고압가스),충청남도 당진시 송산면 무수들길 334,,36.97212091,126.6749022,영업,N,N,,당진시보건소,2023-07-10,5680000,충청남도 당진시
유 에스엠 메디,일반종합도매,경기도 수원시 권선구 효원로 182,경기도 수원시 권선구 권선동 939-4,37.26402893,127.0217791,영업,N,N,031-226-5463,경기도 수원시 권선구보건소,2024-07-04,3740000,경기도 수원시
다온팜,일반종합도매,경기도 수원시 권선구 효원로 182,경기도 수원시 권선구 권선동 939-4,37.26402893,127.0217791,영업,N,N,031-698-4782,경기도 수원시 권선구보건소,2024-07-04,3740000,경기도 수원시
(주)제일팜,일반종합도매,경기도 수원시 권선구 효원로 182,경기도 수원시 권선구 권선동 939-4,37.26402893,127.0217791,영업,N,N,031-283-3842,경기도 수원시 권선구보건소,2024-07-04,3740000,경기도 수원시
돌고래약품,일반종합도매,경기도 수원시 권선구 효원로 182,경기도 수원시 권선구 권선동 939-4,37.26402893,127.0217791,영업,N,N,031-234-6620,경기도 수원시 권선구보건소,2024-07-04,3740000,경기도 수원시
다온홀딩스,일반종합도매,경기도 수원시 권선구 효원로 182,경기도 수원시 권선구 권선동 939-4,37.26402893,127.0217791,영업,N,N,031-221-8825,경기도 수원시 권선구보건소,2024-07-04,3740000,경기도 수원시
(주)디에스약품,일반종합도매,경기도 수원시 권선구 효원로 182,경기도 수원시 권선구 권선동 939-4,37.26402893,127.0217791,영업,N,N,031-221-0167,경기도 수원시 권선구보건소,2024-07-04,3740000,경기도 수원시
진약품,일반종합도매,경기도 수원시 권선구 효원로 182,경기도 수원시 권선구 권선동 939-4,37.26402893,127.0217791,영업,N,N,031-221-7602,경기도 수원시 권선구보건소,2024-07-04,3740000,경기도 수원시
주식회사 에스엠메디팜,일반종합도매,경기도 수원시 권선구 권선로 655,경기도 수원시 권선구 권선동 962-5,37.26044781,127.0232866,영업,N,N,031-8067-7099,경기도 수원시 권선구보건소,2024-07-04,3740000,경기도 수원시
대명팜 주식회사,일반종합도매,,경기도 수원시 권선구 세류동 1279-1,37.26154429,127.007115,영업,N,N,031-284-0788,경기도 수원시 권선구보건소,2024-07-04,3740000,경기도 수원시
(주)조안엠앤에스,일반종합도매,경기도 수원시 권선구 구운로73번길 26-13,경기도 수원시 권선구 구운동 934-3,37.28072491,126.9709279,영업,N,N,070-8813-3388,경기도 수원시 권선구보건소,2024-07-04,3740000,경기도 수원시
대하약업사,한약도매,경기도 수원시 권선구 입북로 12,경기도 수원시 권선구 입북동 430-26,37.29284818,126.9602972,영업,N,N,,경기도 수원시 권선구보건소,2024-07-04,3740000,경기도 수원시
해오름약품,일반종합도매,경기도 수원시 권선구 매송고색로 873,경기도 수원시 권선구 평동 23-28,37.25857202,126.9970911,영업,Y,Y,031-297-3901,경기도 수원시 권선구보건소,2024-07-04,3740000,경기도 수원시
(주)우성제약,일반종합도매,경기도 수원시 권선구 산업로 180,경기도 수원시 권선구 고색동 1094,37.24244482,126.9841072,영업,N,N,031-206-6617,경기도 수원시 권선구보건소,2024-07-04,3740000,경기도 수원시
(주)지에치케어,일반종합도매,경기도 수원시 권선구 탑동로 48,경기도 수원시 권선구 탑동 789-1,37.27303759,126.974396,영업,Y,Y,031-278-6921,경기도 수원시 권선구보건소,2024-07-04,3740000,경기도 수원시
(주)힐링팜,일반종합도매,경기도 수원시 권선구 효원로 182,경기도 수원시 권선구 권선동 939-4,37.26402893,127.0217791,영업,Y,Y,031-222-3365,경기도 수원시 권선구보건소,2024-07-04,3740000,경기도 수원시
코리아엔제이,일반종합도매,경기도 수원시 권선구 권광로 64,경기도 수원시 권선구 권선동 1066-1,37.2536382,127.0289241,영업,N,N,031-232-2868,경기도 수원시 권선구보건소,2024-07-04,3740000,경기도 수원시
오스템임플란트(주),일반종합도매,경기도 수원시 권선구 평동로79번길 45,경기도 수원시 권선구 평동 179,37.25982283,126.992568,영업,Y,Y,031-268-9346,경기도 수원시 권선구보건소,2024-07-04,3740000,경기도 수원시
메르시코리아(주),일반종합도매,경기도 수원시 권선구 곡선로49번길 13-9,경기도 수원시 권선구 곡반정동 557-7,37.23956568,127.0296415,영업,Y,Y,031-258-0510,경기도 수원시 권선구보건소,2024-07-04,3740000,경기도 수원시
파마라인(주),원료의약품도매,경기도 수원시 권선구 당진로32번길 28-16,경기도 수원시 권선구 당수동 167-21,37.2912702,126.9417868,영업,Y,Y,031-505-5207,경기도 수원시 권선구보건소,2024-07-04,3740000,경기도 수원시
(주)대원메딕스,일반종합도매,,경기도 수원시 권선구 세류동 1279-1,37.26154429,127.007115,영업,N,N,031-213-8860,경기도 수원시 권선구보건소,2024-07-04,3740000,경기도 수원시
(주)케이투팜,일반종합도매,경기도 수원시 권선구 경수대로54번길 74,경기도 수원시 권선구 곡반정동 590-4,37.23437945,127.0253237,영업,Y,Y,031-253-5414,경기도 수원시 권선구보건소,2024-07-04,3740000,경기도 수원시
리메디원(주),원료의약품도매,"경기도 수원시 팔달구 권광로175번길 103, 601호 (인계동)",경기도 수원시 팔달구 인계동 1027,37.2646311838,127.0266206,영업,N,N,,경기도 수원시 팔달구보건소,2024-07-04,3740000,경기도 수원시
주식회사 주원약품,일반종합도매,"경기도 수원시 팔달구 권광로 358, E.L.타워 302호 (우만동)",경기도 수원시 팔달구 우만동 134-12,37.2789808,127.0379463,영업,N,N,031-258-7471,경기도 수원시 팔달구보건소,2024-07-04,3740000,경기도 수원시
주식회사 루이제,일반종합도매,"경기도 수원시 팔달구 중부대로 85, 3,4층 (지동)",경기도 수원시 팔달구 지동 116-12,37.2766695,127.0260702,영업,Y,Y,,경기도 수원시 팔달구보건소,2024-07-04,3740000,경기도 수원시
메디플러스팜 주식회사,일반종합도매,"경기도 수원시 팔달구 장다리로271번길 12, 502호 (인계동)",경기도 수원시 팔달구 인계동 956-5,37.2744598,127.0272265,영업,N,N,031-274-2450,경기도 수원시 팔달구보건소,2024-07-04,3740000,경기도 수원시
바른약품 주식회사,일반종합도매,"경기도 수원시 팔달구 중부대로 190, 일량빌딩 4,5층 (인계동)",경기도 수원시 팔달구 인계동 166,37.2767041,127.0367701,영업,Y,Y,031-8067-5289,경기도 수원시 팔달구보건소,2024-07-04,3740000,경기도 수원시
주식회사 영희약품,일반종합도매,"경기도 수원시 팔달구 중부대로 100, 2동 2층 (인계동)",경기도 수원시 팔달구 인계동 208,37.2769375834,127.0275678,영업,Y,Y,031-221-9010,경기도 수원시 팔달구보건소,2024-07-04,3740000,경기도 수원시
주식회사 케이비케어,일반종합도매,"경기도 수원시 팔달구 경수대로 694, 2층 (우만동)",경기도 수원시 팔달구 우만동 473,37.2870598,127.027007,영업,N,N,031-8019-9030,경기도 수원시 팔달구보건소,2024-07-04,3740000,경기도 수원시
청운약품,일반종합도매,"경기도 수원시 팔달구 경수대로466번길 44, 601~602호 (인계동)",경기도 수원시 팔달구 인계동 1034-2,37.26685266,127.0295005,영업,N,N,02-717-6015,경기도 수원시 팔달구보건소,2024-07-04,3740000,경기도 수원시
한진종합가스,의료용고압가스,경기도 수원시 팔달구 정조로644번길 5 (매교동),경기도 수원시 팔달구 매교동 173,37.2661442,127.0164451,폐업,N,N,031-237-0068,경기도 수원시 팔달구보건소,2024-07-04,3740000,경기도 수원시
액티브팜,일반종합도매,경기도 수원시 팔달구 경수대로 627 (지동),경기도 수원시 팔달구 지동 480,37.2813722,127.0292936814,폐업,N,N,031-278-2828,경기도 수원시 팔달구보건소,2024-07-04,3740000,경기도 수원시
비유에스 주식회사,일반종합도매,경기도 수원시 팔달구 중부대로 110 (인계동),경기도 수원시 팔달구 인계동 206,37.27745492,127.0288104,영업,N,N,031-232-6260,경기도 수원시 팔달구보건소,2024-07-04,3740000,경기도 수원시
(주)나모약품,일반종합도매,"경기도 수원시 팔달구 인계로108번길 39-11, 404호 (인계동)",경기도 수원시 팔달구 인계동 1033,37.266026,127.0295496,폐업,N,N,031-224-8801,경기도 수원시 팔달구보건소,2024-07-04,3740000,경기도 수원시
엠피크코리아 주식회사,원료의약품도매,"경기도 수원시 팔달구 권광로175번길 103, 6층 (인계동)",경기도 수원시 팔달구 인계동 1027,37.26463118,127.026632,영업,Y,Y,070-7867-6886,경기도 수원시 팔달구보건소,2024-07-04,3740000,경기도 수원시
베어팜(주),일반종합도매,"경기도 수원시 팔달구 경수대로 712, 대풍빌딩 3층 (우만동)",경기도 수원시 팔달구 우만동 472-14,37.28862236,127.0262662,영업,Y,Y,031-278-2828,경기도 수원시 팔달구보건소,2024-07-04,3740000,경기도 수원시
국제씨엘에스(주),원료의약품도매,"경기도 수원시 팔달구 인계로94번길 21 (인계동,수일빌딩 501호)",경기도 수원시 팔달구 인계동 1020,37.2671102607,127.0276273,폐업,Y,Y,031-235-8852,경기도 수원시 팔달구보건소,2024-07-04,3740000,경기도 수원시
효임약품(주),일반종합도매,"경기도 수원시 팔달구 중부대로87번길 6 (지동, 이상빌딩)",경기도 수원시 팔달구 지동 116,37.2768032,127.0262481,폐업,Y,Y,031-241-2771,경기도 수원시 팔달구보건소,2024-07-04,3740000,경기도 수원시
㈜창인트레이드,시약도매,"경기도 수원시 팔달구 갓매산로 51, 4층",경기도 수원시 팔달구 매산로2가 27(4층),37.2689602,127.0045305,폐업,Y,Y,031-245-1567,경기도 수원시 팔달구보건소,2024-07-04,3740000,경기도 수원시
㈜아큐메드,일반종합도매,"경기도 수원시 팔달구 장다리로172번길 17-3, 2층 (인계동)",경기도 수원시 팔달구 인계동 995-8(2층),37.2652476,127.025214783,폐업,Y,Y,031-221-3301,경기도 수원시 팔달구보건소,2024-07-04,3740000,경기도 수원시
㈜경동약업사,한약도매,경기도 수원시 팔달구 장안로5번길 4 (화서동),경기도 수원시 팔달구 화서동 20-7,37.285628,127.0067121,폐업,Y,Y,1588-7896,경기도 수원시 팔달구보건소,2024-07-04,3740000,경기도 수원시
희성약품㈜,일반종합도매,"경기도 수원시 팔달구 인계로124번길 41-3, 3층 (인계동)",경기도 수원시 팔달구 인계동 1040-10(3층),37.26567507,127.0306299,영업,N,N,031-234-0131,경기도 수원시 팔달구보건소,2024-07-04,3740000,경기도 수원시
참메디한약유통,한약도매,"경기도 수원시 팔달구 정조로 716-1, b1층 (중동)",경기도 수원시 팔달구 중동 146-2,37.2720421,127.016866,폐업,Y,Y,031-269-7533,경기도 수원시 팔달구보건소,2024-07-04,3740000,경기도 수원시
코리아팜(주),일반종합도매,"경기도 수원시 팔달구 수원천로231번길 3, 607호 (구천동)",경기도 수원시 팔달구 구천동 10,37.2743492,127.0186642636,폐업,Y,Y,031-248-7160,경기도 수원시 팔달구보건소,2024-07-04,3740000,경기도 수원시
㈜우리메디칼,일반종합도매,"경기도 수원시 팔달구 경수대로 485, 4층 (인계동)",경기도 수원시 팔달구 인계동 966-6,37.2694083,127.0271267,폐업,Y,Y,031-231-2712,경기도 수원시 팔달구보건소,2024-07-04,3740000,경기도 수원시
㈜인영팜,일반종합도매,"경기도 수원시 팔달구 매산로116번길 34, 4층 (매교동)",경기도 수원시 팔달구 매교동 77-71(4층),37.2696892,127.0139553,폐업,Y,Y,031-225-6546,경기도 수원시 팔달구보건소,2024-07-04,3740000,경기도 수원시
동양메디랩㈜,일반종합도매,"대전광역시 대덕구 동서대로1761번길 12, 2층 201호 (송촌동)",대전광역시 대덕구 송촌동 293-26,36.35357665,127.4426694,영업,Y,N,042-632-6671,대전광역시 대덕구청 보건소,2024-07-04,3680000,대전광역시 대덕구
코오롱제약㈜영업소,일반종합도매,대전광역시 대덕구 문평서로18번길 45 (문평동),대전광역시 대덕구 문평동 48-5,36.44505506,127.3989238,영업,Y,Y,042-930-5782,대전광역시 대덕구청 보건소,2024-07-04,3680000,대전광역시 대덕구
보원당건재도매한약,한약도매,대전광역시 대덕구 송촌남로 63 (송촌동),대전광역시 대덕구 송촌동 564-10,36.35598686,127.4443637,영업,Y,N,042-632-8877,대전광역시 대덕구청 보건소,2024-07-04,3680000,대전광역시 대덕구
㈜서린약품,일반종합도매,대전광역시 대덕구 동서대로 1783 (송촌동),대전광역시 대덕구 송촌동 292-5,36.35514188,127.4435964,영업,Y,N,042-638-0550,대전광역시 대덕구청 보건소,2024-07-04,3680000,대전광역시 대덕구
신천종합가스,기타(의료용 고압가스),대전광역시 대덕구 대화로 139 (대화동),대전광역시 대덕구 대화동 295-1,36.36510144,127.4046307,영업,Y,N,042-625-2808,대전광역시 대덕구청 보건소,2024-07-04,3680000,대전광역시 대덕구
한올바이오파마(주),일반종합도매,대전광역시 대덕구 상서당1길 43 (상서동),대전광역시 대덕구 상서동 400-3,36.42146341,127.4231263,영업,Y,N,042-932-5997,대전광역시 대덕구청 보건소,2024-07-04,3680000,대전광역시 대덕구
㈜대전동원약품,일반종합도매,대전광역시 대덕구 아리랑로 121 (읍내동),대전광역시 대덕구 읍내동 483-2,36.37496823,127.4183777,영업,Y,Y,042-622-9999,대전광역시 대덕구청 보건소,2024-07-04,3680000,대전광역시 대덕구
휴텍스팜(주),일반종합도매,"경기도 수원시 팔달구 효원로 18 (매산로3가,(5층))",경기도 수원시 팔달구 매산로3가 124,37.2719759,127.0089509266,폐업,Y,Y,070-7724-7733,경기도 수원시 팔달구보건소,2024-07-04,3740000,경기도 수원시
인영약품㈜,일반종합도매,"경기도 수원시 팔달구 매산로116번길 40, 4층 (매교동)",경기도 수원시 팔달구 매교동 77-69(4층),37.2695827,127.0140715,폐업,Y,Y,,경기도 수원시 팔달구보건소,2024-07-04,3740000,경기도 수원시
주식회사 젠스코리아,일반종합도매,경기도 수원시 영통구 법조로 25,경기도 수원시 영통구 하동 1016-1,37.28748089,127.0601784,영업,N,N,031-216-8607,경기도 수원시 영통구보건소,2024-07-04,3740000,경기도 수원시
㈜덴티움,일반종합도매,경기도 수원시 영통구 창룡대로256번길 76,경기도 수원시 영통구 이의동 1287-3,37.2952776,127.0406481,영업,N,N,031-888-5100,경기도 수원시 영통구보건소,2024-07-04,3740000,경기도 수원시
㈜제노스,일반종합도매,경기도 수원시 영통구 창룡대로256번길 76,경기도 수원시 영통구 이의동 1287-3,37.2952776,127.0406481,영업,N,N,080-050-2875,경기도 수원시 영통구보건소,2024-07-04,3740000,경기도 수원시
오케이팜,일반종합도매,경기도 수원시 영통구 청명로21번길 15,경기도 수원시 영통구 영통동 1013-16,37.24989992,127.079136,영업,N,N,031-274-2285,경기도 수원시 영통구보건소,2024-07-04,3740000,경기도 수원시
다원팜,일반종합도매,경기도 수원시 영통구 청명로21번길 15,경기도 수원시 영통구 영통동 1013-16,37.24989992,127.079136,영업,N,N,070-8845-7452,경기도 수원시 영통구보건소,2024-07-04,3740000,경기도 수원시
트리메디칼(주),일반종합도매,경기도 수원시 영통구 삼성로168번길 48,경기도 수원시 영통구 매탄동 413-3,37.25912076,127.0590468,영업,Y,Y,031-548-2688,경기도 수원시 영통구보건소,2024-07-04,3740000,경기도 수원시
㈜제넨바이오 수원지점,일반종합도매,경기도 수원시 영통구 청명로21번길 15,경기도 수원시 영통구 영통동 1013,37.24989992,127.079136,영업,N,N,031-203-7270,경기도 수원시 영통구보건소,2024-07-04,3740000,경기도 수원시
㈜에스케이팜,일반종합도매,경기도 수원시 영통구 청명로21번길 15,경기도 수원시 영통구 영통동 1013,37.24989992,127.079136,영업,N,N,031-895-4446,경기도 수원시 영통구보건소,2024-07-04,3740000,경기도 수원시
스타메디컬,일반종합도매,경기도 수원시 영통구 태장로54번길 66,경기도 수원시 영통구 망포동 650-146,37.23610877,127.0517887,영업,N,N,070-7543-2029,경기도 수원시 영통구보건소,2024-07-04,3740000,경기도 수원시
㈜메디시티,일반종합도매,경기도 수원시 영통구 광교로42번길 80,경기도 수원시 영통구 이의동 1358,37.28659939,127.0445229,영업,Y,Y,031-457-3600,경기도 수원시 영통구보건소,2024-07-04,3740000,경기도 수원시
젠스메디칼,일반종합도매,경기도 수원시 영통구 법조로 25,경기도 수원시 영통구 하동 1016-1,37.28748089,127.0601784,영업,N,N,031-216-8607,경기도 수원시 영통구보건소,2024-07-04,3740000,경기도 수원시
다온메디컬,일반종합도매,경기도 수원시 영통구 청명로21번길 15,경기도 수원시 영통구 영통동 1013-16,37.24989992,127.079136,영업,N,N,031-205-5511,경기도 수원시 영통구보건소,2024-07-04,3740000,경기도 수원시
㈜유스케어팜,원료의약품도매,경기도 수원시 영통구 청명남로 39,경기도 수원시 영통구 영통동 998-9,37.25322241,127.075711,영업,N,N,031-8081-1136,경기도 수원시 영통구보건소,2024-07-04,3740000,경기도 수원시
㈜휴네트,일반종합도매,경기도 수원시 영통구 청명로 7,경기도 수원시 영통구 영통동 1021-4,37.24841858,127.0788939,영업,N,N,070-4281-2981,경기도 수원시 영통구보건소,2024-07-04,3740000,경기도 수원시
삼성고압가스,의료용고압가스,경기도 수원시 영통구 신원로220번길 17,경기도 수원시 영통구 매탄동 506-1,37.25551924,127.0612638,영업,Y,Y,031-212-4187,경기도 수원시 영통구보건소,2024-07-04,3740000,경기도 수원시
부림종합가스,의료용고압가스,경기도 수원시 영통구 삼성로320번길 42,경기도 수원시 영통구 원천동 300-2,37.26652924,127.0702234,영업,Y,Y,031-214-8204,경기도 수원시 영통구보건소,2024-07-04,3740000,경기도 수원시
㈜앤시앤,일반종합도매,경기도 수원시 영통구 매영로35번길 9,경기도 수원시 영통구 매탄동 198-51,37.26987865,127.046761,영업,N,N,031-548-0785,경기도 수원시 영통구보건소,2024-07-04,3740000,경기도 수원시
㈜케이에스팜,일반종합도매,경기도 수원시 영통구 매봉로49번길 9,경기도 수원시 영통구 매탄동 1195,37.27241744,127.0527216,영업,N,N,031-548-2212,경기도 수원시 영통구보건소,2024-07-04,3740000,경기도 수원시
약손메디컬,일반종합도매,경기도 수원시 영통구 청명로21번길 15,경기도 수원시 영통구 영통동 1013-16,37.24989992,127.079136,영업,N,N,031-206-2766,경기도 수원시 영통구보건소,2024-07-04,3740000,경기도 수원시
㈜파이헬스케어,일반종합도매,경기도 수원시 영통구 웰빙타운로49번길 28,경기도 수원시 영통구 이의동 1204-6,37.30422314,127.0466298,영업,Y,Y,031-252-7267,경기도 수원시 영통구보건소,2024-07-04,3740000,경기도 수원시
주식회사 에스엠팜,일반종합도매,경기도 수원시 영통구 청명로21번길 15,경기도 수원시 영통구 영통동 1013-16,37.24989992,127.079136,영업,N,N,031-203-7330,경기도 수원시 영통구보건소,2024-07-04,3740000,경기도 수원시
원가스,기타(의료용 고압가스),대전광역시 대덕구 신탄진로115번안길 24 (신대동),대전광역시 대덕구 신대동 411-34,36.391825,127.417769,영업,Y,N,042-624-4001,대전광역시 대덕구청 보건소,2024-07-04,3680000,대전광역시 대덕구
(주)도원티엠에스,일반종합도매,"대전광역시 대덕구 동서대로1761번길 12, 대전약품 2층 208호 (송촌동)",대전광역시 대덕구 송촌동 293-26,36.35357665,127.4426694,영업,Y,N,,대전광역시 대덕구청 보건소,2024-07-04,3680000,대전광역시 대덕구
주식회사 바른팜,일반종합도매,"대전광역시 대덕구 비래서로 53, 2층 (비래동)",대전광역시 대덕구 비래동 141-21,36.35451049,127.4507562,영업,Y,N,042-716-1191,대전광역시 대덕구청 보건소,2024-07-04,3680000,대전광역시 대덕구
(주)리가스,기타(의료용 고압가스),"대전광역시 대덕구 문평동로48번길 142, (주)리가스 (문평동)",대전광역시 대덕구 문평동 108-1,36.45165014,127.4063408,영업,Y,N,042-934-6900,대전광역시 대덕구청 보건소,2024-07-04,3680000,대전광역시 대덕구
가온메딕스,일반종합도매,"대전광역시 대덕구 동춘당로44번길 12, 4층 (송촌동)",대전광역시 대덕구 송촌동 504-5,36.36281373,127.4448102,영업,Y,N,042-626-6167,대전광역시 대덕구청 보건소,2024-07-04,3680000,대전광역시 대덕구
덕암물산,일반종합도매,"대전광역시 대덕구 대화로 160, 308호 (대화동)",대전광역시 대덕구 대화동 289-1,36.36529463,127.4029311,영업,Y,N,,대전광역시 대덕구청 보건소,2024-07-04,3680000,대전광역시 대덕구
YG특수가스,기타(의료용 고압가스),대전광역시 대덕구 신탄진동로36번길 10 (신탄진동),대전광역시 대덕구 신탄진동 156-5,36.4475275,127.4333261,영업,Y,N,,대전광역시 대덕구청 보건소,2024-07-04,3680000,대전광역시 대덕구
(주)엔에스메디칼,일반종합도매,"대전광역시 대덕구 우암로 420, 2층 (비래동)",대전광역시 대덕구 비래동 149-15,36.35617247,127.4549082,영업,Y,N,042-710-2008,대전광역시 대덕구청 보건소,2024-07-04,3680000,대전광역시 대덕구
리드가스케미컬주식회사,기타(의료용 고압가스),대전광역시 대덕구 대화로52번길 163 (대화동),대전광역시 대덕구 대화동 142-1,36.37451322,127.4107205,영업,Y,N,042-627-1644,대전광역시 대덕구청 보건소,2024-07-04,3680000,대전광역시 대덕구
한국노블가스(주),기타(의료용 고압가스),대전광역시 대덕구 신일서로125번길 26 (신일동),대전광역시 대덕구 신일동 96,36.43388595,127.410993,영업,Y,N,042-932-3300,대전광역시 대덕구청 보건소,2024-07-04,3680000,대전광역시 대덕구
(주)세보에너지,기타(의료용 고압가스),"대전광역시 대덕구 벚꽃길 116-1 (상서동, 중부피스코(주))",대전광역시 대덕구 상서동 295-5,36.42825758,127.4221976,영업,Y,N,042-934-2121,대전광역시 대덕구청 보건소,2024-07-04,3680000,대전광역시 대덕구
중앙산업가스(주),기타(의료용 고압가스),"대전광역시 대덕구 대전로 1331 (읍내동, 중앙산업가스)",대전광역시 대덕구 읍내동 450-25,36.37269482,127.4198257,영업,Y,N,042-623-2201,대전광역시 대덕구청 보건소,2024-07-04,3680000,대전광역시 대덕구
(주)메디원,일반종합도매,"대전광역시 대덕구 대화로 160, 지원상가1동 209호 (대화동, 산업용재유통상가)",대전광역시 대덕구 대화동 289-1,36.36529463,127.4029311,영업,Y,N,042-670-7326,대전광역시 대덕구청 보건소,2024-07-04,3680000,대전광역시 대덕구
한국에너시스,기타(의료용 고압가스),대전광역시 대덕구 신탄진로583번길 27 (상서동),대전광역시 대덕구 상서동 189-28,36.43082092,127.4207468,영업,Y,N,042-931-9911,대전광역시 대덕구청 보건소,2024-07-04,3680000,대전광역시 대덕구
(주)케이비팜,일반종합도매,대전광역시 대덕구 동서대로1761번길 12 (송촌동),대전광역시 대덕구 송촌동 293-26,36.35357665,127.4426694,영업,Y,N,042-628-1033,대전광역시 대덕구청 보건소,2024-07-04,3680000,대전광역시 대덕구
(주)케이엘팜,일반종합도매,"대전광역시 대덕구 동서대로1761번길 12, 1,2층 (송촌동)",대전광역시 대덕구 송촌동 293-26,36.35357665,127.4426694,영업,Y,Y,042-632-6692,대전광역시 대덕구청 보건소,2024-07-04,3680000,대전광역시 대덕구
주식회사 해솔팜,일반종합도매,"대전광역시 대덕구 대덕대로1605번길 26, 1층 (석봉동)",대전광역시 대덕구 석봉동 200-16,36.45162239,127.426386,영업,Y,N,042-639-8801,대전광역시 대덕구청 보건소,2024-07-04,3680000,대전광역시 대덕구
주식회사스페셜가스,기타(의료용 고압가스),"대전광역시 대덕구 신탄진로315번길 68, 1,2동 (신대동)",대전광역시 대덕구 신대동 14-1,36.40640975,127.4228933,영업,Y,N,042-933-8411,대전광역시 대덕구청 보건소,2024-07-04,3680000,대전광역시 대덕구
신흥산업가스(주),기타(의료용 고압가스),대전광역시 대덕구 대화로52번길 162 (대화동),대전광역시 대덕구 대화동 158-2,36.37501541,127.4116706,영업,Y,N,042-625-9967,대전광역시 대덕구청 보건소,2024-07-04,3680000,대전광역시 대덕구
주식회사 바이팜,일반종합도매,"대전광역시 대덕구 송촌북로4번길 47-18, 3층 (송촌동)",대전광역시 대덕구 송촌동 475-2,36.36390654,127.4396346,영업,Y,Y,042-335-8880,대전광역시 대덕구청 보건소,2024-07-04,3680000,대전광역시 대덕구
(주) 삼상약품,일반종합도매,"대전광역시 대덕구 우암로 433, 5층 (비래동)",대전광역시 대덕구 비래동 146-4,36.35674429,127.4538583,영업,Y,Y,042-636-9849,대전광역시 대덕구청 보건소,2024-07-04,3680000,대전광역시 대덕구
엘피스팜(주),일반종합도매,"대전광역시 대덕구 동서대로 1783, 2층 (송촌동)",대전광역시 대덕구 송촌동 292-5,36.35514188,127.4435964,영업,Y,N,042-633-7015,대전광역시 대덕구청 보건소,2024-07-04,3680000,대전광역시 대덕구
대흥약품(주),일반종합도매,"대전광역시 대덕구 동서대로 1809, 2층 201호 (송촌동)",대전광역시 대덕구 송촌동 564-1,36.35699674,127.4449864,영업,Y,N,042-587-5522,대전광역시 대덕구청 보건소,2024-07-04,3680000,대전광역시 대덕구
㈜서전약품,일반종합도매,"대전광역시 대덕구 동서대로 1783, 3층 (송촌동)",대전광역시 대덕구 송촌동 292-5,36.35514188,127.4435964,영업,Y,N,042-638-0067,대전광역시 대덕구청 보건소,2024-07-04,3680000,대전광역시 대덕구
(주)넥스팜,일반종합도매,"대전광역시 대덕구 대전로 1383, 2층 (읍내동)",대전광역시 대덕구 읍내동 228-5,36.37737349,127.4207545,영업,Y,Y,042-622-4346,대전광역시 대덕구청 보건소,2024-07-04,3680000,대전광역시 대덕구
(주)우정메디칼,일반종합도매,"대전광역시 대덕구 동서대로1761번길 12, 203호 (송촌동)",대전광역시 대덕구 송촌동 293-26,36.35357665,127.4426694,영업,Y,N,042-628-0610,대전광역시 대덕구청 보건소,2024-07-04,3680000,대전광역시 대덕구
㈜대청약품,일반종합도매,"대전광역시 대덕구 송촌로 1, 우정빌딩 202호 (송촌동)",대전광역시 대덕구 송촌동 564-8,36.35619556,127.4444862,영업,Y,N,042-638-9800,대전광역시 대덕구청 보건소,2024-07-04,3680000,대전광역시 대덕구
(주)동신메디칼,일반종합도매,"대전광역시 대덕구 동서대로1777번길 1 (송촌동, 오뚜기빌딩 403호)",대전광역시 대덕구 송촌동 293-2,36.35414471,127.4431187,영업,Y,N,042-672-0062,대전광역시 대덕구청 보건소,2024-07-04,3680000,대전광역시 대덕구
주식회사 파이팜,일반종합도매,"서울특별시 영등포구대림로27나길8, 302호(대림동)",,37.49557467,126.8983849,영업,Y,Y,,서울특별시 영등포구,2024-08-01,3180000,서울특별시 영등포구
(주)헬로팜,일반종합도매,"경상남도 진주시 주약약골길 119, 1층 (주약동)",,35.16941753,128.0788556,영업,N,N,,경상남도 진주시청,2024-06-28,5310000,경상남도 진주시
주식회사 가온약품,일반종합도매,"경상남도 진주시 진양호로 51, 2,3층 (판문동)",,35.16734588,128.0455331,영업,N,N,,경상남도 진주시청,2024-06-28,5310000,경상남도 진주시
주식회사 지니메드,일반종합도매,"경상남도 진주시 도동천로 266, 3층 (하대동)",,35.1904679,128.1240203,영업,N,N,,경상남도 진주시청,2024-06-28,5310000,경상남도 진주시
청솔팜,일반종합도매,"경상남도 진주시 집현면 하촌로 316, 1~2층",,35.21613371,128.0689741,영업,Y,Y,,경상남도 진주시청,2024-06-28,5310000,경상남도 진주시
광혜건재한약품,한약도매,경상남도 진주시 진주성로88번길 10 (상봉동),,35.19750714,128.0768922,영업,Y,Y,,경상남도 진주시청,2024-06-28,5310000,경상남도 진주시
동인당건재한약품,한약도매,경상남도 진주시 순환로 512 (평거동),,35.17062215,128.0630625,영업,Y,Y,,경상남도 진주시청,2024-06-28,5310000,경상남도 진주시
보림건재한약품,한약도매,경상남도 진주시 진주성로 178 (상봉동),,35.20510705,128.0746633,영업,Y,Y,,경상남도 진주시청,2024-06-28,5310000,경상남도 진주시
(주)서훈메디칼,일반종합도매,경상남도 진주시 장재새미길 9 (장재동),,35.20839915,128.1012106,영업,Y,Y,,경상남도 진주시청,2024-06-28,5310000,경상남도 진주시
주식회사신진약품,일반종합도매,경상남도 진주시 진주성로178번길 12 (상봉동),,35.20614921,128.0752027,영업,Y,Y,,경상남도 진주시청,2024-06-28,5310000,경상남도 진주시
(주)지엔메디텍,일반종합도매,"경상남도 진주시 말티고개로 34, 1,2층 (초전동)",,35.19933924,128.1051161,영업,Y,Y,,경상남도 진주시청,2024-06-28,5310000,경상남도 진주시
촉석메디칼,일반종합도매,경상남도 진주시 정촌면 화개천로 74,,35.12410445,128.1015437,영업,N,N,,경상남도 진주시청,2024-06-28,5310000,경상남도 진주시
(주)경남동원약품,일반종합도매,경상남도 진주시 큰들로114번길 7 (상평동),,35.17072311,128.1157611,영업,Y,Y,,경상남도 진주시청,2024-06-28,5310000,경상남도 진주시
제일건재한약품,한약도매,경상남도 진주시 향교로18번길 8 (수정동),,35.19702376,128.0845778,영업,Y,Y,,경상남도 진주시청,2024-06-28,5310000,경상남도 진주시
대일가스,기타,"강원특별자치도 동해시 동해대로 4491 (대구동, 대일가스)",강원특별자치도 동해시 대구동 1-2,37.4663205424,129.1481830447,영업,N,Y,033-521-1581,강원특별자치도 동해시청,2024-06-27,4211000,강원특별자치도 동해시
(주)동화산업가스,기타,강원특별자치도 동해시 공단2로 5 (구호동),강원특별자치도 동해시 구호동 242,37.4717812,129.1426491082,영업,N,Y,033-521-1818,강원특별자치도 동해시청,2024-06-27,4211000,강원특별자치도 동해시
(주)솔향약품,일반종합도매,"강원특별자치도 동해시 발한로 183-1, 2층 (발한동)",강원특별자치도 동해시 발한동 240-21,37.5473828122,129.1065649875,영업,N,Y,033-533-3577,강원특별자치도 동해시청,2024-06-27,4211000,강원특별자치도 동해시
이수메디케어,의약품도매업소,"전라남도 순천시 왕지4길 10, 4층 (왕지동)",전라남도 순천시 왕지동 872-6,34.96894789,127.5254012,영업,N,N,0507-1320-029,순천시보건소,2024-05-31,4820000,전라남도 순천시
진메디팜,의약품도매업소,"전라남도 순천시 북정3길 2, 3층 (매곡동)",전라남도 순천시 매곡동 419-1,34.96561401,127.4844384,영업,N,N,,순천시보건소,2024-05-31,4820000,전라남도 순천시
삼전약품,의약품도매업소,"전라남도 순천시 하대석길 43, 신광빌딩 3층 (연향동)",전라남도 순천시 연향동 1483-3 신광빌딩,34.94637963,127.5245987,영업,Y,Y,061-726-7115,순천시보건소,2024-05-31,4820000,전라남도 순천시
퍼스트메디컬,의약품도매업소,"전라남도 순천시 비봉2길 3-30, 3층 좌측호 (조례동)",전라남도 순천시 조례동 1734-2 3층 좌측호,34.97072958,127.5213784,영업,N,N,061-726-7765,순천시보건소,2024-05-31,4820000,전라남도 순천시
다온약품,의약품도매업소,"전라남도 순천시 서면 동산길 12, 가동 202호",전라남도 순천시 서면 동산리 375번지 2호,35.00499137,127.4802185,영업,N,N,061-726-1529,순천시보건소,2024-05-31,4820000,전라남도 순천시
(주)해양약품,의약품도매업소,"전라남도 순천시 해룡면 매안로 69, 2층",전라남도 순천시 풍덕동 243-16,34.93276428,127.5549536,영업,N,N,061-723-3663,순천시보건소,2024-05-31,4820000,전라남도 순천시
㈜호남약품,의약품도매업소,"전라남도 순천시 중앙로 399 (가곡동, 호남약품)",전라남도 순천시 가곡동 964번지 5호,34.98080532,127.4847853,영업,Y,Y,061-751-5300,순천시보건소,2024-05-31,4820000,전라남도 순천시
아이엘약품주식회사,의약품도매업소,"전라남도 순천시 서면 죽평길 4, 가동 1층 105-A호",전라남도 순천시 서면 동산리 939번지,34.99665666,127.4900716,영업,N,N,061-753-6116,순천시보건소,2024-05-31,4820000,전라남도 순천시
고려약품,의약품도매업소,전라남도 순천시 원가곡1길 12-10 (가곡동),전라남도 순천시 가곡동 134번지 1호,34.98529979,127.4859498,영업,Y,Y,061-752-2771,순천시보건소,2024-05-31,4820000,전라남도 순천시
건민약품(주),의약품도매업소,전라남도 순천시 서면 순천로 61,전라남도 순천시 서면 동산리 74번지 1호 제119~120호,34.9961723,127.4873756,영업,Y,Y,061-724-2517,순천시보건소,2024-05-31,4820000,전라남도 순천시
㈜세바 의약품,의약품도매업소,"전라남도 순천시 율산길 42, 3층 (연향동)",전라남도 순천시 연향동 1607-1 상가,34.94080888,127.5267541,영업,N,N,061-725-3672,순천시보건소,2024-05-31,4820000,전라남도 순천시
현대고수가스,기타,전북특별자치도 고창군 고수면 부곡길 107,,35.40463388,126.6735551,영업,Y,Y,063-564-3651,전북특별자치도 고창군,2024-06-26,4781000,전북특별자치도 고창군
바이오파마솔루션,일반종합도매,"대전광역시 대덕구 동서대로 1783, 서린약품 2층 203호 (송촌동)",대전광역시 대덕구 송촌동 292-5,36.35514188,127.4435964,영업,Y,N,,대전광역시 대덕구청 보건소,2024-07-04,3680000,대전광역시 대덕구
주식회사 다인약품,일반종합도매,"대전광역시 대덕구 우암로486번길 8, 2층 (비래동)",대전광역시 대덕구 비래동 117-17,36.35939935,127.4492714,영업,Y,Y,,대전광역시 대덕구청 보건소,2024-07-04,3680000,대전광역시 대덕구
아이씨엠에스,일반종합도매,"대전광역시 대덕구 대화로 160, 산업용재유통상가 1동 204호 (대화동)",대전광역시 대덕구 대화동 289-1,36.36529463,127.4029311,영업,Y,N,,대전광역시 대덕구청 보건소,2024-07-04,3680000,대전광역시 대덕구
주식회사씨메디,일반종합도매,"대전광역시 대덕구 덕암로 186, 2층 (평촌동)",대전광역시 대덕구 평촌동 535-10,36.43716027,127.422981,영업,Y,Y,042-719-1400,대전광역시 대덕구청 보건소,2024-07-04,3680000,대전광역시 대덕구
대중가스,기타,경상남도 함양군 함양읍 기동길 53,경상남도 함양군 함양읍 신천리 211,35.525671,127.740315,영업,Y,N,055-963-7117,경상남도 함양군보건소,2024-06-30,5460000,경상남도 함양군
한들가스,기타,경상남도 함양군 함양읍 함양로 1399,경상남도 함양군 함양읍 신천리 51-1,35.5404917547,127.7407374987,영업,Y,N,055-963-8814,경상남도 함양군보건소,2024-06-30,5460000,경상남도 함양군
함양가스,기타,경상남도 함양군 함양읍 함양로 1419,경상남도 함양군 함양읍 신천리 16-3,35.541918,127.7413679854,영업,Y,N,055-962-3104,경상남도 함양군보건소,2024-06-30,5460000,경상남도 함양군
함창한약도매상,한약도매,경상남도 함양군 함양읍 용평5길 26,경상남도 함양군 함양읍 용평리 723-26,35.517539004,127.728773,영업,N,N,,경상남도 함양군보건소,2024-06-30,5460000,경상남도 함양군
제이제이메디칼,일반종합도매,경상남도 진주시 금산면 월아산로 1340-14,,35.18460407,128.1586768,영업,N,N,,경상남도 진주시청,2024-06-28,5310000,경상남도 진주시
근우약품(주),일반종합도매,"경상남도 진주시 개양로 100, 105동 1층 103호 (가좌동, 스카이 시티프라디움)",,35.15507463,128.1165239,영업,N,N,,경상남도 진주시청,2024-06-28,5310000,경상남도 진주시
안심팜,일반종합도매,경상남도 진주시 북장대로64번길 15(상봉동),,35.19617956,128.0746656,영업,Y,Y,,경상남도 진주시청,2024-06-28,5310000,경상남도 진주시
(주)서우팜,일반종합도매,"서울특별시 영등포구가마산로 364,지하1층 102호 103호(대림동)",,37.50094613,126.8990356,영업,Y,Y,02-6672-3211,서울특별시 영등포구,2024-08-01,3180000,서울특별시 영등포구
제이유메딕스,일반종합도매,"부산광역시 기장군 정관읍 정관로 579, 스타빌딩 9층 905,906호",부산광역시 기장군 정관읍 매학리 717-1,35.32137251,129.1771781,영업,N,N,051-728-7027,부산광역시 기장군청,2024-08-05,3400000,부산광역시 기장군
이스트팜,일반종합도매,"부산광역시 기장군 정관읍 정관2로 9, 215동 B105호 (이지 더원 2차 아파트)",부산광역시 기장군 정관읍 모전리 735,35.33328925,129.1628366,영업,N,N,051-728-5406,부산광역시 기장군청,2024-08-05,3400000,부산광역시 기장군
(주)메디베스트,일반종합도매,"부산광역시 기장군 기장읍 차성로 382, 해운약품주식회사 3층 일부호",부산광역시 기장군 기장읍 교리 330-10,35.25151695,129.2141416,영업,N,N,051-723-1777,부산광역시 기장군청,2024-08-05,3400000,부산광역시 기장군
정관약품,일반종합도매,"부산광역시 기장군 정관읍 달산길 6-8, 1층",부산광역시 기장군 정관읍 매학리 790-3,35.31892384,129.1812394,영업,N,N,051-727-1901,부산광역시 기장군청,2024-08-05,3400000,부산광역시 기장군
(주)천마산업가스,일반종합도매,부산광역시 기장군 정관읍 용수공단1길 31,부산광역시 기장군 정관읍 용수리 1031-4,35.31720218,129.1827658,영업,N,N,051-728-3355,부산광역시 기장군청,2024-08-05,3400000,부산광역시 기장군
차성종합가스,일반종합도매,부산광역시 기장군 일광읍 이화로 94,부산광역시 기장군 일광읍 이천리 708-4,35.273667806,129.230496389,영업,N,N,051-723-3100,부산광역시 기장군청,2024-08-05,3400000,부산광역시 기장군
운곡한약품,한약도매,부산광역시 기장군 정관읍 용수공단2길 64-4 (효성전기(주)),부산광역시 기장군 정관읍 용수리 1047-3,35.32458867,129.1621109,영업,N,N,051-441-3136,부산광역시 기장군청,2024-08-05,3400000,부산광역시 기장군
하니온 허브,한약도매,부산광역시 기장군 정관읍 용수공단1길 36,부산광역시 기장군 정관읍 용수리 1031-5,35.32775702,129.1619745,영업,N,N,051-000-0000,부산광역시 기장군청,2024-08-05,3400000,부산광역시 기장군
(주)현주케어,일반종합도매,부산광역시 기장군 기장읍 차성로441번길 15,부산광역시 기장군 기장읍 교리 242,35.25561171,129.2167059,영업,N,N,051-724-4477,부산광역시 기장군청,2024-08-05,3400000,부산광역시 기장군
선경메디팜,일반종합도매,"부산광역시 기장군 기장읍 차성로190번길 11, 2층",부산광역시 기장군 기장읍 대라리 189-6,35.23410757,129.2138168,영업,N,N,051-747-1196,부산광역시 기장군청,2024-08-05,3400000,부산광역시 기장군
세종약품 주식회사,일반종합도매,부산광역시 기장군 일광읍 일광로 111-10,부산광역시 기장군 일광읍 이천리 750-4,35.26744531,129.2330795877,영업,N,N,051-723-7251,부산광역시 기장군청,2024-08-05,3400000,부산광역시 기장군
(주)금호약품,일반종합도매,부산광역시 기장군 기장읍 차성로412번길 18,부산광역시 기장군 기장읍 교리 332-6,35.253076,129.2151297,영업,N,N,051-502-6208,부산광역시 기장군청,2024-08-05,3400000,부산광역시 기장군
정원약품㈜,일반종합도매,부산광역시 기장군 기장읍 배산로8번길 56,부산광역시 기장군 기장읍 서부리 405,35.25033185,129.2098916,영업,N,N,051-784-7744,부산광역시 기장군청,2024-08-05,3400000,부산광역시 기장군
해운약품㈜,일반종합도매,"부산광역시 기장군 기장읍 차성로 382, 해운약품주식회사 404호",부산광역시 기장군 기장읍 교리 330-10,35.25151695,129.2141416,영업,N,N,051-722-4901,부산광역시 기장군청,2024-08-05,3400000,부산광역시 기장군
(주)에이치팜,일반종합도매,"부산광역시 기장군 기장읍 차성로 204-1, 301호 (우원빌라)",부산광역시 기장군 기장읍 대라리 175-7,35.23568284,129.2134713,영업,N,N,051-000-0000,부산광역시 기장군청,2024-08-05,3400000,부산광역시 기장군
제이와이치과쌤,일반종합도매,"부산광역시 기장군 기장읍 차성로412번길 18, 1층",부산광역시 기장군 기장읍 교리 332-6,35.253076,129.2151297,영업,N,N,051-000-0000,부산광역시 기장군청,2024-08-05,3400000,부산광역시 기장군
주식회사 영동약품,일반종합도매,"대전광역시 동구 물류로13번길 25, 206호 (구도동)",대전광역시 동구 구도동 359,36.2720514,127.470445,영업,Y,N,,대전광역시 동구청,2024-08-01,3640000,대전광역시 동구
(주)지오메디칼,일반종합도매,"대전광역시 동구 한밭대로 1308, 5층 (용전동)",대전광역시 동구 용전동 72-10,36.35228142,127.4400025,영업,Y,Y,042-623-0630,대전광역시 동구청,2024-08-01,3640000,대전광역시 동구
주식회사 다온메디칼,일반종합도매,"대전광역시 동구 물류로13번길 25, 203호 (구도동)",대전광역시 동구 구도동 359,36.2720514,127.470445,영업,Y,N,,대전광역시 동구청,2024-08-01,3640000,대전광역시 동구
주식회사 굿인팜,일반종합도매,"대전광역시 동구 물류로13번길 25, 207호 (구도동)",대전광역시 동구 구도동 359,36.2720514,127.470445,영업,Y,N,,대전광역시 동구청,2024-08-01,3640000,대전광역시 동구
보국주식회사,일반종합도매,"대전광역시 동구 물류로13번길 25, 204호 (구도동)",대전광역시 동구 구도동 359,36.2720514,127.470445,영업,Y,N,,대전광역시 동구청,2024-08-01,3640000,대전광역시 동구
에이치제이팜,일반종합도매,"대전광역시 동구 산내로 1288-8, 206호 (낭월동)",대전광역시 동구 낭월동 644,36.27838129,127.4697392,영업,Y,N,,대전광역시 동구청,2024-08-01,3640000,대전광역시 동구
우리약업사,한약도매,충청남도 금산군 금산읍 뒷담말길 12,,36.1042574,127.4903209,영업,Y,Y,,충청남도 금산군보건소,2024-07-10,4550000,충청남도 금산군
호남건재약업사,한약도매,충청남도 금산군 금산읍 비단로 148,,36.1008618,127.4956481,영업,Y,Y,,충청남도 금산군보건소,2024-07-10,4550000,충청남도 금산군
대광건재약업사,한약도매,충청남도 금산군 금산읍 인삼약초로 24,,36.10010156,127.4964497,영업,Y,Y,,충청남도 금산군보건소,2024-07-10,4550000,충청남도 금산군
대흥약업사,한약도매,충청남도 금산군 금산읍 비단로 138 (대흥약업사),,36.09991478,127.495221,영업,Y,Y,,충청남도 금산군보건소,2024-07-10,4550000,충청남도 금산군
신일특수가스,의료용 고압가스,광주광역시 서구 풍서좌로 227 (매월동),광주광역시 서구 매월동 322-1,35.1268807848,126.8448077362,영업,Y,Y,062-655-2300,광주광역시 서구 보건소,2024-07-05,3600000,광주광역시 서구
(주)구암약품,일반종합도매,"광주광역시 서구 회재로 892, 5층 (풍암동)",광주광역시 서구 풍암동 893-3,35.1223070875,126.8620276199,영업,Y,Y,062-652-0707,광주광역시 서구 보건소,2024-07-05,3600000,광주광역시 서구
(주)기독약품,일반종합도매,"광주광역시 서구 상무대로 929, 3층 (쌍촌동)",광주광역시 서구 쌍촌동 964-28,35.1515415694,126.8635141813,영업,Y,N,062-368-5006,광주광역시 서구 보건소,2024-07-05,3600000,광주광역시 서구
회춘당 한약도매,한약도매,"광주광역시 서구 구성로49번길 7, 1층 (양동)",광주광역시 서구 양동 20,35.1517118991,126.9025083275,영업,Y,Y,062-367-7634,광주광역시 서구 보건소,2024-07-05,3600000,광주광역시 서구
(주)디엔메디,일반종합도매,"광주광역시 서구 풍암1로21번길 3-10, 6층 (풍암동)",광주광역시 서구 풍암동 1113-6,35.1258041725,126.8785975646,영업,Y,Y,062-431-4207,광주광역시 서구 보건소,2024-07-05,3600000,광주광역시 서구
(주)삼성메디칼,일반종합도매,광주광역시 서구 화정로279번길 2-1 (농성동),광주광역시 서구 농성동 661-7,35.1491115169,126.8869923973,영업,Y,Y,062-362-1110,광주광역시 서구 보건소,2024-07-05,3600000,광주광역시 서구
(주)삼인약품,일반종합도매,"광주광역시 서구 천변좌하로 486, 1층 (쌍촌동)",광주광역시 서구 쌍촌동 1047,35.1674613079,126.8645838321,영업,Y,Y,062-362-1515,광주광역시 서구 보건소,2024-07-05,3600000,광주광역시 서구
(유)팜스원,일반종합도매,광주광역시 서구 화정로 280 (농성동),광주광역시 서구 농성동 669-1,35.1487250667,126.8869528757,영업,Y,Y,062-363-8319,광주광역시 서구 보건소,2024-07-05,3600000,광주광역시 서구
(주)호암약품,일반종합도매,"광주광역시 서구 매월1로57번길 30, 2층 (매월동)",광주광역시 서구 매월동 952-23,35.1146266784,126.8607152176,영업,Y,Y,062-655-4040,광주광역시 서구 보건소,2024-07-05,3600000,광주광역시 서구
(주)두리약품,일반종합도매,"광주광역시 서구 상무자유로 18-1, 2층 (치평동)",광주광역시 서구 치평동 893-4,35.1508080281,126.8361558025,영업,Y,Y,062-352-7887,광주광역시 서구 보건소,2024-07-05,3600000,광주광역시 서구
소생당한약도매,한약도매,"광주광역시 서구 천변좌로262번길 13-1 (양동,(1층))",광주광역시 서구 양동 5-9,35.1519666909,126.9033800689,영업,Y,Y,062-364-7080,광주광역시 서구 보건소,2024-07-05,3600000,광주광역시 서구
제이엠메디칼(주),일반종합도매,"광주광역시 서구 경열로65번길 1, 3층 (농성동)",광주광역시 서구 농성동 154-1,35.1512626777,126.8929183136,영업,Y,Y,062-674-8586,광주광역시 서구 보건소,2024-07-05,3600000,광주광역시 서구
주식회사스카이약품,일반종합도매,"서울특별시 영등포구가마산로361, 안국빌딩402호 403호(대림동)",,37.50110473,126.8984301,영업,Y,Y,02-1811-8099,서울특별시 영등포구,2024-08-01,3180000,서울특별시 영등포구
성호팜주식회사,일반종합도매,"부산광역시 부산진구 신암로 66, 311호 (범천동, 범천엘에이치아파트)",,35.14730602,129.054787,영업,Y,Y,,부산광역시 부산진구보건소,2024-08-01,3290000,부산광역시 부산진구
늘푸른약품,일반종합도매,"부산광역시 부산진구 가야공원로 54, 3층 (가야동)",,35.14861999,129.0299135,영업,N,N,,부산광역시 부산진구보건소,2024-08-01,3290000,부산광역시 부산진구
㈜ 디알팜,일반종합도매,"부산광역시 부산진구 부전로 102-5, 2층 (부전동)",,35.15920279,129.0549737,영업,Y,Y,,부산광역시 부산진구보건소,2024-08-01,3290000,부산광역시 부산진구
대성메디칼,일반종합도매,"부산광역시 부산진구 가야공원로 29, 3층 (가야동)",,35.15070952,129.0301155,영업,N,N,,부산광역시 부산진구보건소,2024-08-01,3290000,부산광역시 부산진구
삼광약품,일반종합도매,"부산광역시 부산진구 성지로 91, 3층 (초읍동)",,35.17855431,129.0530612,영업,N,N,,부산광역시 부산진구보건소,2024-08-01,3290000,부산광역시 부산진구
현대한약품,한약도매,부산광역시 부산진구 서전로58번길 114 (전포동),,35.15261596,129.0660173,영업,Y,Y,,부산광역시 부산진구보건소,2024-08-01,3290000,부산광역시 부산진구
경주한약품,한약도매,부산광역시 부산진구 자유평화로3번길 14-21 (범천동),,35.14222315,129.0618872,영업,Y,Y,,부산광역시 부산진구보건소,2024-08-01,3290000,부산광역시 부산진구
㈜한신약품,일반종합도매,"부산광역시 부산진구 새싹로 215, 9동 111호 (초읍동)",,35.1752945,129.0485431,영업,Y,Y,,부산광역시 부산진구보건소,2024-08-01,3290000,부산광역시 부산진구
